{"_id":"683a33bea283950ac8f56b53","serial_id":21,"title":"JAM","category":"Standstill Traffic","street":"Autopista Vespucio Sur","city":null,"reporter":"world_f7tluape","coordinates":{"lat":-33.51883,"lon":-70.707084}}
{"_id":"683a33bea283950ac8f56b54","serial_id":22,"title":"JAM","category":"Standstill Traffic","street":"Ruta G-30 / Camino a Lonquén","city":null,"reporter":null,"coordinates":{"lat":-33.523533,"lon":-70.726146}}
{"_id":"683a33bea283950ac8f56b55","serial_id":23,"title":"HAZARD","category":"Road Hazard","street":"Av. Américo Vespucio","city":"Cerrillos","reporter":null,"coordinates":{"lat":-33.511814,"lon":-70.720554}}
{"_id":"683a33bea283950ac8f56b56","serial_id":24,"title":"JAM","category":"Standstill Traffic","street":"Av. Américo Vespucio","city":"Cerrillos","reporter":null,"coordinates":{"lat":-33.514519,"lon":-70.716996}}
{"_id":"683a33bea283950ac8f56b57","serial_id":25,"title":"JAM","category":"Heavy Traffic","street":"Camino a Lonquén lateral","city":null,"reporter":"AmandaAguirre07","coordinates":{"lat":-33.516097,"lon":-70.719879}}
{"_id":"683a33bea283950ac8f56b58","serial_id":26,"title":"JAM","category":"Standstill Traffic","street":"Av. Américo Vespucio","city":"Lo Espejo","reporter":"world_jf1trdbe","coordinates":{"lat":-33.520269,"lon":-70.703626}}
{"_id":"683a33bea283950ac8f56b59","serial_id":27,"title":"CHIT_CHAT","category":"Chit-Chat","street":"Autopista Vespucio Sur","city":null,"reporter":"ppudpppp","coordinates":{"lat":-33.518355,"lon":-70.708366}}
{"_id":"683a33bea283950ac8f56b5a","serial_id":28,"title":"HAZARD","category":"Car Stopped on Shoulder","street":"Autopista Vespucio Sur","city":null,"reporter":"aalbornozb","coordinates":{"lat":-33.517978,"lon":-70.709388}}
{"_id":"683a33bea283950ac8f56b5b","serial_id":29,"title":"JAM","category":"Heavy Traffic","street":"Acceso a Autopista Vespucio Sur","city":null,"reporter":"NubeNinja1","coordinates":{"lat":-33.521,"lon":-70.701725}}
{"_id":"683a33bea283950ac8f56b5c","serial_id":30,"title":"JAM","category":"Heavy Traffic","street":"Av. Américo Vespucio","city":"Cerrillos","reporter":null,"coordinates":{"lat":-33.513178,"lon":-70.718877}}
{"_id":"683a33bea283950ac8f56b5d","serial_id":31,"title":"JAM","category":"Standstill Traffic","street":"Acceso a Camino a Lonquén > Norte","city":null,"reporter":"FelipeArenas01","coordinates":{"lat":-33.514536,"lon":-70.718375}}
{"_id":"683a33bea283950ac8f56b5e","serial_id":32,"title":"JAM","category":"Heavy Traffic","street":"Av. Pedro Aguirre Cerda","city":"Cerrillos","reporter":"world_50o3fqlf","coordinates":{"lat":-33.50331,"lon":-70.710927}}
{"_id":"683a33bea283950ac8f56b5f","serial_id":33,"title":"JAM","category":"Heavy Traffic","street":"General Velásquez","city":"Cerrillos","reporter":"LeittoRb","coordinates":{"lat":-33.511283,"lon":-70.700031}}
{"_id":"683a33bea283950ac8f56b60","serial_id":34,"title":"JAM","category":"Standstill Traffic","street":"Ruta G-30 / Camino a Lonquén","city":null,"reporter":"DannerNinja5","coordinates":{"lat":-33.506321,"lon":-70.712577}}
{"_id":"683a33bea283950ac8f56b61","serial_id":35,"title":"HAZARD","category":"Road Hazard","street":"Av. Américo Vespucio","city":"Lo Espejo","reporter":"reynaldios","coordinates":{"lat":-33.522337,"lon":-70.700001}}
{"_id":"683a33bea283950ac8f56b62","serial_id":36,"title":"JAM","category":"Heavy Traffic","street":"Autopista Vespucio Sur","city":null,"reporter":"grojas10","coordinates":{"lat":-33.520223,"lon":-70.703212}}
{"_id":"683a33bea283950ac8f56b63","serial_id":37,"title":"CHIT_CHAT","category":"Chit-Chat","street":"Av. Américo Vespucio","city":"Cerrillos","reporter":"world_j54bndb8","coordinates":{"lat":-33.511226,"lon":-70.721205}}
{"_id":"683a33bea283950ac8f56b64","serial_id":38,"title":"JAM","category":"Heavy Traffic","street":"Av. Lo Espejo","city":"Cerrillos","reporter":"Bricas2","coordinates":{"lat":-33.529198,"lon":-70.712614}}
{"_id":"683a33bea283950ac8f56b65","serial_id":39,"title":"JAM","category":"Standstill Traffic","street":"Av. Lo Espejo","city":"Cerrillos","reporter":null,"coordinates":{"lat":-33.526884,"lon":-70.718456}}
{"_id":"683a33bea283950ac8f56b66","serial_id":40,"title":"JAM","category":"Heavy Traffic","street":"Autopista Central - Eje Gral. Velásquez","city":null,"reporter":"Alfaviruz","coordinates":{"lat":-33.517189,"lon":-70.702644}}
{"_id":"683a33bea283950ac8f56b7a","serial_id":61,"title":"JAM","category":"Standstill Traffic","street":"Monseñor Edwards","city":"La Reina","reporter":"rivkasedaca","coordinates":{"lat":-33.435896,"lon":-70.560671}}
{"_id":"683a33bea283950ac8f56b7b","serial_id":62,"title":"CHIT_CHAT","category":"Chit-Chat","street":"Av. Cristóbal Colón","city":"Las Condes","reporter":"PabIoAndres","coordinates":{"lat":-33.422427,"lon":-70.577265}}
{"_id":"683a33bea283950ac8f56b7c","serial_id":63,"title":"JAM","category":"Standstill Traffic","street":"Av. Ossa","city":"La Reina","reporter":"luisi_6945","coordinates":{"lat":-33.43593,"lon":-70.574013}}
{"_id":"683a33bea283950ac8f56b7d","serial_id":64,"title":"HAZARD","category":"Construction","street":"Hernando de Magallanes","city":"Las Condes","reporter":"AGUAS CORDILLERA. TRABAJANDO EN EL TRAMO.","coordinates":{"lat":-33.420187,"lon":-70.561935}}
{"_id":"683a33bea283950ac8f56b7e","serial_id":65,"title":"HAZARD","category":"Construction","street":"Martín Alonso Pinzón","city":"Las Condes","reporter":"AGUAS CORDILLERA. TRABAJANDO EN EL TRAMO!","coordinates":{"lat":-33.419018,"lon":-70.561379}}
{"_id":"683a33bea283950ac8f56b7f","serial_id":66,"title":"JAM","category":"Standstill Traffic","street":"Flandes","city":"Las Condes","reporter":"world_0btfh5p9","coordinates":{"lat":-33.42924,"lon":-70.57819}}
{"_id":"683a33bea283950ac8f56b80","serial_id":67,"title":"JAM","category":"Standstill Traffic","street":"Av. Francisco Bilbao","city":"Las Condes","reporter":"ALBERTO1974trivi","coordinates":{"lat":-33.430805,"lon":-70.562766}}
{"_id":"683a33bea283950ac8f56b81","serial_id":68,"title":"JAM","category":"Standstill Traffic","street":"Av. Francisco Bilbao","city":"Las Condes","reporter":null,"coordinates":{"lat":-33.43101,"lon":-70.569045}}
{"_id":"683a33bea283950ac8f56b82","serial_id":69,"title":"JAM","category":"Standstill Traffic","street":"Av. Ossa","city":"La Reina","reporter":"trader42","coordinates":{"lat":-33.433774,"lon":-70.574404}}
{"_id":"683a33bea283950ac8f56b83","serial_id":70,"title":"JAM","category":"Standstill Traffic","street":"Av. Américo Vespucio Sur","city":"Las Condes","reporter":null,"coordinates":{"lat":-33.425917,"lon":-70.576562}}
{"_id":"683a33bea283950ac8f56b84","serial_id":71,"title":"JAM","category":"Traffic Jam","street":"Av. Américo Vespucio Sur","city":"Las Condes","reporter":"SOCRAMSOROM","coordinates":{"lat":-33.42469,"lon":-70.577714}}
{"_id":"683a33bea283950ac8f56b85","serial_id":72,"title":"JAM","category":"Standstill Traffic","street":"Av. Ossa","city":"La Reina","reporter":"ALBERTO1974trivi","coordinates":{"lat":-33.431624,"lon":-70.574769}}
{"_id":"683a33bea283950ac8f56b86","serial_id":73,"title":"JAM","category":"Standstill Traffic","street":"Av. Francisco Bilbao","city":"La Reina","reporter":null,"coordinates":{"lat":-33.430721,"lon":-70.558197}}
{"_id":"683a33bea283950ac8f56b87","serial_id":74,"title":"JAM","category":"Standstill Traffic","street":"Latadía","city":"Las Condes","reporter":"ElNakio","coordinates":{"lat":-33.428491,"lon":-70.575967}}
{"_id":"683a33bea283950ac8f56b88","serial_id":75,"title":"JAM","category":"Standstill Traffic","street":"Av. Francisco Bilbao","city":"La Reina","reporter":"PabloAbad","coordinates":{"lat":-33.430801,"lon":-70.560125}}
{"_id":"683a33bea283950ac8f56b89","serial_id":76,"title":"JAM","category":"Standstill Traffic","street":"Av. Ossa","city":"La Reina","reporter":null,"coordinates":{"lat":-33.436247,"lon":-70.573672}}
{"_id":"683a33bea283950ac8f56b8a","serial_id":77,"title":"JAM","category":"Traffic Jam","street":"Valenzuela Puelma","city":"La Reina","reporter":null,"coordinates":{"lat":-33.435004,"lon":-70.551045}}
{"_id":"683a33bea283950ac8f56b8b","serial_id":78,"title":"JAM","category":"Heavy Traffic","street":"Av. Príncipe de Gales","city":"La Reina","reporter":"anibal777","coordinates":{"lat":-33.438021,"lon":-70.571556}}
{"_id":"683a33bea283950ac8f56b8c","serial_id":79,"title":"POLICE","category":"Police","street":"Av. Cristóbal Colón","city":"Las Condes","reporter":"world_cft6x59t","coordinates":{"lat":-33.421329,"lon":-70.576457}}
{"_id":"683a33bea283950ac8f56b8d","serial_id":80,"title":"JAM","category":"Standstill Traffic","street":"Aguas Claras","city":"La Reina","reporter":null,"coordinates":{"lat":-33.439399,"lon":-70.556696}}
{"_id":"683a33bea283950ac8f56b8e","serial_id":81,"title":"JAM","category":"Heavy Traffic","street":"Av. Ossa","city":"La Reina","reporter":null,"coordinates":{"lat":-33.432021,"lon":-70.574703}}
{"_id":"683a33bea283950ac8f56b8f","serial_id":82,"title":"ROAD_CLOSED","category":"Road Closed","street":"Romeo Salinas","city":"Ñuñoa","reporter":"Gasparfox","coordinates":{"lat":-33.437786,"lon":-70.574362}}
{"_id":"683a33bea283950ac8f56b90","serial_id":83,"title":"JAM","category":"Standstill Traffic","street":"Av. Francisco Bilbao","city":"Las Condes","reporter":null,"coordinates":{"lat":-33.430909,"lon":-70.565417}}
{"_id":"683a33bea283950ac8f56b91","serial_id":84,"title":"JAM","category":"Traffic Jam","street":"Monseñor Edwards","city":"La Reina","reporter":null,"coordinates":{"lat":-33.432916,"lon":-70.560136}}
{"_id":"683a33bea283950ac8f56b92","serial_id":85,"title":"JAM","category":"Heavy Traffic","street":"Isabel La Católica","city":"Las Condes","reporter":null,"coordinates":{"lat":-33.426372,"lon":-70.577573}}
{"_id":"683a33bea283950ac8f56b93","serial_id":86,"title":"CHIT_CHAT","category":"Chit-Chat","street":"Av. Ossa","city":"La Reina","reporter":"AngelD16B","coordinates":{"lat":-33.434364,"lon":-70.573871}}
{"_id":"683a33bea283950ac8f56b94","serial_id":87,"title":"JAM","category":"Standstill Traffic","street":"Av. Américo Vespucio > Norte","city":"Las Condes","reporter":"SOCRAMSOROM","coordinates":{"lat":-33.425457,"lon":-70.577018}}
{"_id":"683a33bea283950ac8f56b95","serial_id":88,"title":"JAM","category":"Standstill Traffic","street":"Nocedal","city":"La Reina","reporter":null,"coordinates":{"lat":-33.437292,"lon":-70.560587}}
{"_id":"683a33bea283950ac8f56b96","serial_id":89,"title":"JAM","category":"Standstill Traffic","street":"Av. Francisco Bilbao","city":"Las Condes","reporter":null,"coordinates":{"lat":-33.431126,"lon":-70.572682}}
{"_id":"683a33bea283950ac8f56b97","serial_id":90,"title":"CHIT_CHAT","category":"Chit-Chat","street":"Av. Apoquindo","city":"Las Condes","reporter":"s123jjsjd","coordinates":{"lat":-33.410677,"lon":-70.574071}}
{"_id":"683a33bea283950ac8f56b98","serial_id":91,"title":"JAM","category":"Standstill Traffic","street":"Florencio Barrios","city":"La Reina","reporter":null,"coordinates":{"lat":-33.432285,"lon":-70.551744}}
{"_id":"683a33bea283950ac8f56b99","serial_id":92,"title":"JAM","category":"Standstill Traffic","street":"Juan Esteban Montero","city":"Las Condes","reporter":"Maaarceee","coordinates":{"lat":-33.42719,"lon":-70.574331}}
{"_id":"683a33bea283950ac8f56b9a","serial_id":93,"title":"JAM","category":"Heavy Traffic","street":"Av. Príncipe de Gales","city":"La Reina","reporter":null,"coordinates":{"lat":-33.439261,"lon":-70.553427}}
{"_id":"683a33bea283950ac8f56b9b","serial_id":94,"title":"ROAD_CLOSED","category":"Road Closed","street":"Romeo Salinas","city":"Ñuñoa","reporter":"Gasparfox","coordinates":{"lat":-33.438036,"lon":-70.574344}}
{"_id":"683a33bea283950ac8f56b9c","serial_id":95,"title":"JAM","category":"Traffic Jam","street":"Aguas Claras","city":"La Reina","reporter":null,"coordinates":{"lat":-33.439487,"lon":-70.55688}}
{"_id":"683a33bea283950ac8f56b9d","serial_id":96,"title":"JAM","category":"Heavy Traffic","street":"Av. Américo Vespucio Sur","city":"Las Condes","reporter":"world_oej2f1qr","coordinates":{"lat":-33.42991,"lon":-70.575035}}
{"_id":"683a33bea283950ac8f56b9e","serial_id":97,"title":"JAM","category":"Heavy Traffic","street":"Av. Tobalaba","city":"Ñuñoa","reporter":null,"coordinates":{"lat":-33.436616,"lon":-70.577018}}
{"_id":"683a33bea283950ac8f56b9f","serial_id":98,"title":"JAM","category":"Standstill Traffic","street":"Av. Américo Vespucio Sur","city":"Las Condes","reporter":"KanoMaturana","coordinates":{"lat":-33.427236,"lon":-70.575875}}
{"_id":"683a33bea283950ac8f56ba0","serial_id":99,"title":"JAM","category":"Standstill Traffic","street":"Av. Ossa","city":"La Reina","reporter":null,"coordinates":{"lat":-33.432944,"lon":-70.574547}}
{"_id":"683a33bea283950ac8f56ba1","serial_id":100,"title":"JAM","category":"Heavy Traffic","street":"Florencio Barrios","city":"Las Condes","reporter":null,"coordinates":{"lat":-33.424853,"lon":-70.552704}}
{"_id":"683a33bea283950ac8f56ba2","serial_id":101,"title":"JAM","category":"Standstill Traffic","street":"Tomás Moro","city":"Las Condes","reporter":"wingrazor","coordinates":{"lat":-33.429865,"lon":-70.554268}}
{"_id":"683a33bea283950ac8f56ba3","serial_id":102,"title":"JAM","category":"Heavy Traffic","street":"Av. Francisco Bilbao","city":"Las Condes","reporter":null,"coordinates":{"lat":-33.431151,"lon":-70.573954}}
{"_id":"683a33bea283950ac8f56ba4","serial_id":103,"title":"JAM","category":"Standstill Traffic","street":"Av. Francisco Bilbao","city":"La Reina","reporter":null,"coordinates":{"lat":-33.43058,"lon":-70.555568}}
{"_id":"683a33bea283950ac8f56ba5","serial_id":104,"title":"JAM","category":"Heavy Traffic","street":"Av. Ossa","city":"La Reina","reporter":"Aarceu","coordinates":{"lat":-33.435557,"lon":-70.574082}}
{"_id":"683a33bea283950ac8f56ba6","serial_id":105,"title":"JAM","category":"Heavy Traffic","street":"Av. Francisco Bilbao","city":"La Reina","reporter":null,"coordinates":{"lat":-33.431371,"lon":-70.577202}}
{"_id":"683a33bea283950ac8f56ba7","serial_id":106,"title":"ROAD_CLOSED","category":"Road Closed","street":"Romeo Salinas (Pista Izquierda)","city":"Ñuñoa","reporter":"Gasparfox","coordinates":{"lat":-33.438205,"lon":-70.57433}}
{"_id":"683a33bea283950ac8f56ba8","serial_id":107,"title":"JAM","category":"Standstill Traffic","street":"Av. Francisco Bilbao","city":"La Reina","reporter":null,"coordinates":{"lat":-33.431306,"lon":-70.575213}}
{"_id":"683a33bea283950ac8f56ba9","serial_id":108,"title":"JAM","category":"Heavy Traffic","street":"Tomás Moro","city":"Las Condes","reporter":null,"coordinates":{"lat":-33.421044,"lon":-70.553322}}
{"_id":"683a33bea283950ac8f56baa","serial_id":109,"title":"JAM","category":"Standstill Traffic","street":"Av. Américo Vespucio Sur","city":"Las Condes","reporter":null,"coordinates":{"lat":-33.426737,"lon":-70.576326}}
{"_id":"683a33bea283950ac8f56bab","serial_id":110,"title":"JAM","category":"Standstill Traffic","street":"Salvador Izquierdo","city":"La Reina","reporter":"wingrazor","coordinates":{"lat":-33.436697,"lon":-70.556326}}
{"_id":"683a33bea283950ac8f56bac","serial_id":111,"title":"JAM","category":"Standstill Traffic","street":"Alcalde Manuel de la Lastra","city":"La Reina","reporter":"MichiLion","coordinates":{"lat":-33.431136,"lon":-70.554618}}
{"_id":"683a33bea283950ac8f56bad","serial_id":112,"title":"JAM","category":"Heavy Traffic","street":"Alcalde Manuel de la Lastra","city":"La Reina","reporter":null,"coordinates":{"lat":-33.431258,"lon":-70.554621}}
{"_id":"683a33bea283950ac8f56bae","serial_id":113,"title":"JAM","category":"Heavy Traffic","street":"Isabel La Católica","city":"Las Condes","reporter":"victorg539","coordinates":{"lat":-33.425451,"lon":-70.566011}}
{"_id":"683a33bea283950ac8f56baf","serial_id":114,"title":"JAM","category":"Standstill Traffic","street":"Nocedal","city":"La Reina","reporter":"world_gjb8nxb1","coordinates":{"lat":-33.437423,"lon":-70.557712}}
{"_id":"683a33bea283950ac8f56bb0","serial_id":115,"title":"JAM","category":"Standstill Traffic","street":"Nocedal","city":"La Reina","reporter":"Cris_concha3","coordinates":{"lat":-33.437444,"lon":-70.557268}}
{"_id":"683a33bea283950ac8f56bb1","serial_id":116,"title":"HAZARD","category":"Pothole","street":"Domingo Bondi","city":"Las Condes","reporter":"rbeseler","coordinates":{"lat":-33.417627,"lon":-70.568058}}
{"_id":"683a33bea283950ac8f56bb2","serial_id":117,"title":"JAM","category":"Heavy Traffic","street":"Av. Américo Vespucio Sur","city":"Las Condes","reporter":"SOCRAMSOROM","coordinates":{"lat":-33.42528,"lon":-70.577156}}
{"_id":"683a33bea283950ac8f56bda","serial_id":158,"title":"ROAD_CLOSED","category":"Road Closed","street":"Depósito Express Pudahuel","city":"Pudahuel","reporter":"Subsecretaria de Transportes","coordinates":{"lat":-33.442052,"lon":-70.790182}}
{"_id":"683a33bea283950ac8f56bdb","serial_id":159,"title":"JAM","category":"Standstill Traffic","street":"Ruta 68","city":null,"reporter":null,"coordinates":{"lat":-33.441758,"lon":-70.799364}}
{"_id":"683a33bea283950ac8f56bdc","serial_id":160,"title":"ROAD_CLOSED","category":"Road Closed","street":"Depósito Express Pudahuel","city":"Pudahuel","reporter":"Subsecretaria de Transportes","coordinates":{"lat":-33.44144,"lon":-70.790116}}
{"_id":"683a33bea283950ac8f56bdd","serial_id":161,"title":"ROAD_CLOSED","category":"Road Closed","street":"Depósito Express Pudahuel","city":"Pudahuel","reporter":"Subsecretaria de Transportes","coordinates":{"lat":-33.44138,"lon":-70.790036}}
{"_id":"683a33bea283950ac8f56bde","serial_id":163,"title":"ROAD_CLOSED","category":"Road Closed","street":"Salida Depósito Express Pudahuel","city":null,"reporter":"Subsecretaria de Transportes","coordinates":{"lat":-33.44322,"lon":-70.790242}}
{"_id":"683a33bea283950ac8f56bdf","serial_id":164,"title":"HAZARD","category":"Car Stopped on Shoulder","street":"Ruta 68","city":null,"reporter":"world_t5kf1g0a","coordinates":{"lat":-33.441195,"lon":-70.802288}}
{"_id":"683a33bea283950ac8f56be0","serial_id":165,"title":"ACCIDENT","category":"Accident","street":"Ruta 68","city":null,"reporter":null,"coordinates":{"lat":-33.441848,"lon":-70.798894}}
{"_id":"683a33bea283950ac8f56be1","serial_id":167,"title":"JAM","category":"Heavy Traffic","street":"Acceso Ruta 68 > Valparaíso","city":null,"reporter":null,"coordinates":{"lat":-33.442845,"lon":-70.792934}}
{"_id":"683a33bea283950ac8f56bf4","serial_id":189,"title":"HAZARD","category":"Car Stopped on Shoulder","street":"Elisa Correa Sanfuentes","city":"La Florida","reporter":"OscuridadProfunda","coordinates":{"lat":-33.569613,"lon":-70.589855}}
{"_id":"683a33bea283950ac8f56bf5","serial_id":190,"title":"JAM","category":"Heavy Traffic","street":"Av. Gabriela Poniente","city":"Puente Alto","reporter":"world_3pruuhzb","coordinates":{"lat":-33.580075,"lon":-70.587959}}
{"_id":"683a33bea283950ac8f56bf6","serial_id":191,"title":"HAZARD","category":"Construction","street":"Av. Gabriela Poniente","city":"Puente Alto","reporter":"sackergato","coordinates":{"lat":-33.579531,"lon":-70.584228}}
{"_id":"683a33bea283950ac8f56bf7","serial_id":192,"title":"JAM","category":"Standstill Traffic","street":"Av. Luis Matte Larraín","city":"Puente Alto","reporter":"Javox182","coordinates":{"lat":-33.586616,"lon":-70.585938}}
{"_id":"683a33bea283950ac8f56bf8","serial_id":193,"title":"JAM","category":"Heavy Traffic","street":"Av. Concha y Toro","city":"Puente Alto","reporter":null,"coordinates":{"lat":-33.570401,"lon":-70.583386}}
{"_id":"683a33bea283950ac8f56bf9","serial_id":194,"title":"POLICE","category":"Police","street":"Av. Ejército Libertador","city":"Puente Alto","reporter":null,"coordinates":{"lat":-33.577681,"lon":-70.598497}}
{"_id":"683a33bea283950ac8f56bfa","serial_id":195,"title":"JAM","category":"Standstill Traffic","street":"Caletera Acceso Sur","city":"Puente Alto","reporter":null,"coordinates":{"lat":-33.58508,"lon":-70.609616}}
{"_id":"683a33bea283950ac8f56bfb","serial_id":196,"title":"HAZARD","category":"Pothole","street":"Av. Gabriela Poniente","city":"Puente Alto","reporter":null,"coordinates":{"lat":-33.57966,"lon":-70.584501}}
{"_id":"683a33bea283950ac8f56bfc","serial_id":197,"title":"POLICE","category":"Police","street":"Creta","city":"Puente Alto","reporter":null,"coordinates":{"lat":-33.589113,"lon":-70.601007}}
{"_id":"683a33bea283950ac8f56bfd","serial_id":198,"title":"ROAD_CLOSED","category":"Road Closed","street":"Jacarandá","city":"Puente Alto","reporter":null,"coordinates":{"lat":-33.571178,"lon":-70.58324}}
{"_id":"683a33bea283950ac8f56bfe","serial_id":199,"title":"HAZARD","category":"Pothole","street":"Bahía Fitz Roy","city":"Puente Alto","reporter":null,"coordinates":{"lat":-33.57311,"lon":-70.602425}}
{"_id":"683a33bea283950ac8f56bff","serial_id":200,"title":"POLICE","category":"Police","street":"Av. Gabriela Poniente","city":"Puente Alto","reporter":null,"coordinates":{"lat":-33.581601,"lon":-70.598525}}
{"_id":"683a33bea283950ac8f56c00","serial_id":201,"title":"JAM","category":"Standstill Traffic","street":"Caletera Acceso Sur","city":"Puente Alto","reporter":null,"coordinates":{"lat":-33.583742,"lon":-70.609731}}
{"_id":"683a33bea283950ac8f56c01","serial_id":202,"title":"POLICE","category":"Police","street":"María Elena","city":"La Florida","reporter":"OscuridadProfunda","coordinates":{"lat":-33.562425,"lon":-70.602043}}
{"_id":"683a33bea283950ac8f56c02","serial_id":203,"title":"JAM","category":"Heavy Traffic","street":"Av. Concha y Toro","city":"Puente Alto","reporter":null,"coordinates":{"lat":-33.578078,"lon":-70.582228}}
{"_id":"683a33bea283950ac8f56c03","serial_id":204,"title":"POLICE","category":"Police","street":"Av. Ejército Libertador","city":"Puente Alto","reporter":"world_ginb6ymo","coordinates":{"lat":-33.584723,"lon":-70.597012}}
{"_id":"683a33bea283950ac8f56c18","serial_id":225,"title":"ACCIDENT","category":"Accident","street":"Av. Salvador Allende","city":"Lo Espejo","reporter":"ValeCitha","coordinates":{"lat":-33.511932,"lon":-70.698682}}
{"_id":"683a33bea283950ac8f56c19","serial_id":226,"title":"JAM","category":"Traffic Jam","street":"Av. Américo Vespucio","city":"Lo Espejo","reporter":"world_jf1trdbe","coordinates":{"lat":-33.528753,"lon":-70.688853}}
{"_id":"683a33bea283950ac8f56c1a","serial_id":227,"title":"JAM","category":"Heavy Traffic","street":"Av. Santa Anita","city":"Lo Espejo","reporter":null,"coordinates":{"lat":-33.520358,"lon":-70.689724}}
{"_id":"683a33bea283950ac8f56c1b","serial_id":228,"title":"JAM","category":"Standstill Traffic","street":"Av. Américo Vespucio","city":"Lo Espejo","reporter":"world_jf1trdbe","coordinates":{"lat":-33.523231,"lon":-70.698922}}
{"_id":"683a33bea283950ac8f56c1c","serial_id":229,"title":"JAM","category":"Traffic Jam","street":"Av. Américo Vespucio","city":"Lo Espejo","reporter":"world_jf1trdbe","coordinates":{"lat":-33.527516,"lon":-70.691685}}
{"_id":"683a33bea283950ac8f56c1d","serial_id":230,"title":"JAM","category":"Traffic Jam","street":"Concón","city":"Lo Espejo","reporter":null,"coordinates":{"lat":-33.515644,"lon":-70.677055}}
{"_id":"683a33bea283950ac8f56c1e","serial_id":231,"title":"HAZARD","category":"Car Stopped on Shoulder","street":"Av. Américo Vespucio","city":"Lo Espejo","reporter":null,"coordinates":{"lat":-33.522914,"lon":-70.697563}}
{"_id":"683a33bea283950ac8f56c1f","serial_id":232,"title":"JAM","category":"Heavy Traffic","street":"Av. Presidente José Joaquín Prieto Vial","city":"Lo Espejo","reporter":null,"coordinates":{"lat":-33.529502,"lon":-70.680511}}
{"_id":"683a33bea283950ac8f56c20","serial_id":233,"title":"JAM","category":"Standstill Traffic","street":"Autopista Vespucio Sur","city":null,"reporter":null,"coordinates":{"lat":-33.528004,"lon":-70.690101}}
{"_id":"683a33bea283950ac8f56c21","serial_id":234,"title":"HAZARD","category":"Construction","street":"Av. Clotario Blest","city":"Lo Espejo","reporter":"pablocontrerasf87","coordinates":{"lat":-33.508296,"lon":-70.683929}}
{"_id":"683a33bea283950ac8f56c22","serial_id":235,"title":"JAM","category":"Heavy Traffic","street":"Av. Lo Ovalle","city":"Lo Espejo","reporter":null,"coordinates":{"lat":-33.509175,"lon":-70.674825}}
{"_id":"683a33bea283950ac8f56c23","serial_id":236,"title":"JAM","category":"Standstill Traffic","street":"Av. Santa Anita","city":"Lo Espejo","reporter":null,"coordinates":{"lat":-33.520598,"lon":-70.689844}}
{"_id":"683a33bea283950ac8f56c24","serial_id":237,"title":"JAM","category":"Standstill Traffic","street":"Av. Américo Vespucio","city":"Lo Espejo","reporter":"world_jf1trdbe","coordinates":{"lat":-33.529449,"lon":-70.68733}}
{"_id":"683a33bea283950ac8f56c25","serial_id":238,"title":"JAM","category":"Heavy Traffic","street":"Cardenal Raúl Silva Henríquez","city":"Lo Espejo","reporter":null,"coordinates":{"lat":-33.521953,"lon":-70.697319}}
{"_id":"683a33bea283950ac8f56c26","serial_id":239,"title":"JAM","category":"Standstill Traffic","street":"Av. Américo Vespucio","city":"Lo Espejo","reporter":"world_jf1trdbe","coordinates":{"lat":-33.529888,"lon":-70.686447}}
{"_id":"683a33bea283950ac8f56c27","serial_id":240,"title":"JAM","category":"Standstill Traffic","street":"Autopista Vespucio Sur","city":null,"reporter":null,"coordinates":{"lat":-33.525671,"lon":-70.695295}}
{"_id":"683a33bea283950ac8f56c28","serial_id":241,"title":"HAZARD","category":"Road Hazard","street":"Av. Américo Vespucio","city":"Lo Espejo","reporter":null,"coordinates":{"lat":-33.522914,"lon":-70.697563}}
{"_id":"683a33bea283950ac8f56c29","serial_id":242,"title":"JAM","category":"Heavy Traffic","street":"Av. Lo Errázuriz","city":"Cerrillos","reporter":null,"coordinates":{"lat":-33.501875,"lon":-70.697003}}
{"_id":"683a33bea283950ac8f56c51","serial_id":283,"title":"POLICE","category":"Police","street":"Av. Los Toros","city":"Puente Alto","reporter":null,"coordinates":{"lat":-33.566378,"lon":-70.555637}}
{"_id":"683a33bea283950ac8f56c52","serial_id":284,"title":"HAZARD","category":"Pothole","street":"Bahía Inglesa","city":"Puente Alto","reporter":"world_qeedpwfi","coordinates":{"lat":-33.564743,"lon":-70.579472}}
{"_id":"683a33bea283950ac8f56c53","serial_id":285,"title":"JAM","category":"Standstill Traffic","street":"Av. Camilo Henríquez","city":"Puente Alto","reporter":null,"coordinates":{"lat":-33.561641,"lon":-70.556522}}
{"_id":"683a33bea283950ac8f56c54","serial_id":286,"title":"JAM","category":"Heavy Traffic","street":"Av. Diego Portales","city":"La Florida","reporter":"SpeedupSnc","coordinates":{"lat":-33.561783,"lon":-70.573285}}
{"_id":"683a33bea283950ac8f56c55","serial_id":287,"title":"HAZARD","category":"Pothole","street":"Pasaje Roma","city":"Puente Alto","reporter":"bstmnttm","coordinates":{"lat":-33.573769,"lon":-70.571982}}
{"_id":"683a33bea283950ac8f56c56","serial_id":288,"title":"HAZARD","category":"Pothole","street":"Parque Cordillera","city":"Puente Alto","reporter":"2049895627ec4005b1ae24e41311fb87","coordinates":{"lat":-33.587767,"lon":-70.55357}}
{"_id":"683a33bea283950ac8f56c57","serial_id":289,"title":"JAM","category":"Heavy Traffic","street":"Av. El Peñón","city":"Puente Alto","reporter":"world_tx7l5sl0","coordinates":{"lat":-33.580041,"lon":-70.564945}}
{"_id":"683a33bea283950ac8f56c58","serial_id":290,"title":"JAM","category":"Standstill Traffic","street":"Av. El Peral","city":"Puente Alto","reporter":"SpeedupSnc","coordinates":{"lat":-33.570699,"lon":-70.554086}}
{"_id":"683a33bea283950ac8f56c59","serial_id":291,"title":"HAZARD","category":"Pothole","street":"Chayavientos","city":"Puente Alto","reporter":"world_qxen5983","coordinates":{"lat":-33.585775,"lon":-70.57107}}
{"_id":"683a33bea283950ac8f56c5a","serial_id":292,"title":"POLICE","category":"Police","street":"Av. Los Toros","city":"Puente Alto","reporter":null,"coordinates":{"lat":-33.567614,"lon":-70.568176}}
{"_id":"683a33bea283950ac8f56c5b","serial_id":293,"title":"POLICE","category":"Police","street":"Las Nieves Oriente","city":"Puente Alto","reporter":null,"coordinates":{"lat":-33.57149,"lon":-70.561233}}
{"_id":"683a33bea283950ac8f56c5c","serial_id":294,"title":"JAM","category":"Traffic Jam","street":"Av. México","city":"Puente Alto","reporter":null,"coordinates":{"lat":-33.574497,"lon":-70.565232}}
{"_id":"683a33bea283950ac8f56c5d","serial_id":295,"title":"JAM","category":"Standstill Traffic","street":"Av. Troncal San Francisco","city":"Puente Alto","reporter":null,"coordinates":{"lat":-33.588653,"lon":-70.55777}}
{"_id":"683a33bea283950ac8f56c5e","serial_id":296,"title":"HAZARD","category":"Pothole","street":"Chayavientos","city":"Puente Alto","reporter":null,"coordinates":{"lat":-33.586587,"lon":-70.571016}}
{"_id":"683a33bea283950ac8f56c73","serial_id":317,"title":"JAM","category":"Standstill Traffic","street":"Valenzuela Puelma","city":"La Reina","reporter":"world_1yqadd9q","coordinates":{"lat":-33.433925,"lon":-70.541872}}
{"_id":"683a33bea283950ac8f56c74","serial_id":318,"title":"JAM","category":"Heavy Traffic","street":"Av. Padre Hurtado Sur","city":"Las Condes","reporter":"world_c9vdjkzp","coordinates":{"lat":-33.416621,"lon":-70.538946}}
{"_id":"683a33bea283950ac8f56c75","serial_id":319,"title":"JAM","category":"Standstill Traffic","street":"Av. Francisco Bilbao","city":"La Reina","reporter":"acornejoreveco","coordinates":{"lat":-33.429189,"lon":-70.541244}}
{"_id":"683a33bea283950ac8f56c76","serial_id":320,"title":"JAM","category":"Standstill Traffic","street":"Av. Padre Hurtado Sur","city":"Las Condes","reporter":"world_1yqadd9q","coordinates":{"lat":-33.427856,"lon":-70.538971}}
{"_id":"683a33bea283950ac8f56c77","serial_id":321,"title":"JAM","category":"Standstill Traffic","street":"Av. Francisco Bilbao","city":"Las Condes","reporter":null,"coordinates":{"lat":-33.429744,"lon":-70.549287}}
{"_id":"683a33bea283950ac8f56c78","serial_id":322,"title":"POLICE","category":"Police","street":"Av. Padre Hurtado Sur","city":"Las Condes","reporter":null,"coordinates":{"lat":-33.413483,"lon":-70.540299}}
{"_id":"683a33bea283950ac8f56c79","serial_id":323,"title":"JAM","category":"Standstill Traffic","street":"Padre Hurtado","city":"La Reina","reporter":"world_1yqadd9q","coordinates":{"lat":-33.431894,"lon":-70.538842}}
{"_id":"683a33bea283950ac8f56c7a","serial_id":324,"title":"HAZARD","category":"Pothole","street":"Vital Apoquindo interior","city":"Las Condes","reporter":null,"coordinates":{"lat":-33.418201,"lon":-70.529915}}
{"_id":"683a33bea283950ac8f56c7b","serial_id":325,"title":"JAM","category":"Standstill Traffic","street":"Av. Padre Hurtado Sur","city":"Las Condes","reporter":null,"coordinates":{"lat":-33.418216,"lon":-70.538329}}
{"_id":"683a33bea283950ac8f56c7c","serial_id":326,"title":"JAM","category":"Heavy Traffic","street":"Av. Padre Hurtado Sur","city":"Las Condes","reporter":null,"coordinates":{"lat":-33.425984,"lon":-70.538521}}
{"_id":"683a33bea283950ac8f56c91","serial_id":347,"title":"HAZARD","category":"Object on Road","street":"Ruta 68","city":null,"reporter":null,"coordinates":{"lat":-33.444111,"lon":-70.787953}}
{"_id":"683a33bea283950ac8f56c92","serial_id":348,"title":"JAM","category":"Standstill Traffic","street":"Autopista Vespucio Norte","city":null,"reporter":"world_8fxc2hma","coordinates":{"lat":-33.451575,"lon":-70.772764}}
{"_id":"683a33bea283950ac8f56c93","serial_id":349,"title":"ROAD_CLOSED","category":"Road Closed","street":"Puerto Madero","city":"Pudahuel","reporter":"LATAM Waze Editors Hub Account","coordinates":{"lat":-33.450674,"lon":-70.783012}}
{"_id":"683a33bea283950ac8f56c94","serial_id":350,"title":"JAM","category":"Heavy Traffic","street":"Ruta 68","city":null,"reporter":null,"coordinates":{"lat":-33.446084,"lon":-70.777715}}
{"_id":"683a33bea283950ac8f56c95","serial_id":351,"title":"ROAD_CLOSED","category":"Road Closed","street":"Salida 21 > San Pablo / Claudio Arrau","city":null,"reporter":"Autopista Vespucio Norte Express S.A.","coordinates":{"lat":-33.451011,"lon":-70.773191}}
{"_id":"683a33bea283950ac8f56c96","serial_id":352,"title":"ROAD_CLOSED","category":"Road Closed","street":"Salida a Vespucio Norte Express > La Florida / 5 Sur / Maipú","city":null,"reporter":"LATAM Waze Editors Hub Account","coordinates":{"lat":-33.44743,"lon":-70.777797}}
{"_id":"683a33bea283950ac8f56c97","serial_id":353,"title":"POLICE","category":"Police with Mobile Camera","street":"Isla Grande de Tierra del Fuego","city":"Pudahuel","reporter":null,"coordinates":{"lat":-33.456516,"lon":-70.760203}}
{"_id":"683a33bea283950ac8f56c98","serial_id":355,"title":"JAM","category":"Standstill Traffic","street":"Ruta 68","city":null,"reporter":null,"coordinates":{"lat":-33.446199,"lon":-70.777089}}
{"_id":"683a33bea283950ac8f56c99","serial_id":356,"title":"ROAD_CLOSED","category":"Road Closed","street":"Av. San Pablo","city":"Pudahuel","reporter":"Subsecretaria de Transportes","coordinates":{"lat":-33.443054,"lon":-70.788678}}
{"_id":"683a33bea283950ac8f56c9a","serial_id":357,"title":"ROAD_CLOSED","category":"Road Closed","street":"Puerto Madero","city":"Pudahuel","reporter":"LATAM Waze Editors Hub Account","coordinates":{"lat":-33.450907,"lon":-70.780039}}
{"_id":"683a33bea283950ac8f56c9b","serial_id":358,"title":"ACCIDENT","category":"Accident","street":"Autopista Vespucio Norte","city":null,"reporter":"PabloAravenaGho","coordinates":{"lat":-33.448028,"lon":-70.776584}}
{"_id":"683a33bea283950ac8f56c9c","serial_id":359,"title":"HAZARD","category":"Pothole","street":"Av. Los Mares","city":"Pudahuel","reporter":null,"coordinates":{"lat":-33.464188,"lon":-70.760098}}
{"_id":"683a33bea283950ac8f56c9d","serial_id":360,"title":"ROAD_CLOSED","category":"Road Closed","street":"Puerto Madero","city":"Pudahuel","reporter":"LATAM Waze Editors Hub Account","coordinates":{"lat":-33.450796,"lon":-70.781418}}
{"_id":"683a33bea283950ac8f56c9e","serial_id":361,"title":"HAZARD","category":"Pothole","street":"Puerto Santiago","city":"Pudahuel","reporter":null,"coordinates":{"lat":-33.454628,"lon":-70.781894}}
{"_id":"683a33bea283950ac8f56c9f","serial_id":362,"title":"ROAD_CLOSED","category":"Road Closed","street":"Depósito Express Pudahuel","city":"Pudahuel","reporter":"Subsecretaria de Transportes","coordinates":{"lat":-33.442797,"lon":-70.789916}}
{"_id":"683a33bea283950ac8f56ca0","serial_id":363,"title":"ROAD_CLOSED","category":"Road Closed","street":"Acceso Autopista Américo Vespucio > Ruta 68 / Las Condes","city":null,"reporter":"Autopista Vespucio Norte Express S.A.","coordinates":{"lat":-33.450178,"lon":-70.773923}}
{"_id":"683a33bea283950ac8f56ca1","serial_id":364,"title":"ROAD_CLOSED","category":"Road Closed","street":"Av. Claudio Arrau","city":"Pudahuel","reporter":"Gasparfox","coordinates":{"lat":-33.448891,"lon":-70.767285}}
{"_id":"683a33bea283950ac8f56ca2","serial_id":365,"title":"ROAD_CLOSED","category":"Road Closed","street":"Av. Claudio Arrau","city":"Pudahuel","reporter":"Gasparfox","coordinates":{"lat":-33.449006,"lon":-70.766651}}
{"_id":"683a33bea283950ac8f56ca3","serial_id":367,"title":"JAM","category":"Standstill Traffic","street":"Av. Américo Vespucio","city":"Pudahuel","reporter":"Ragar2499","coordinates":{"lat":-33.446658,"lon":-70.779009}}
{"_id":"683a33bea283950ac8f56ca4","serial_id":369,"title":"JAM","category":"Standstill Traffic","street":"Autopista Vespucio Norte","city":null,"reporter":null,"coordinates":{"lat":-33.458306,"lon":-70.765321}}
{"_id":"683a33bea283950ac8f56ca5","serial_id":370,"title":"ROAD_CLOSED","category":"Road Closed","street":"Puerto Madero","city":"Pudahuel","reporter":"LATAM Waze Editors Hub Account","coordinates":{"lat":-33.44786,"lon":-70.777215}}
{"_id":"683a33bea283950ac8f56ca6","serial_id":371,"title":"ROAD_CLOSED","category":"Road Closed","street":"Av. San Pablo","city":"Pudahuel","reporter":"Subsecretaria de Transportes","coordinates":{"lat":-33.443804,"lon":-70.782577}}
{"_id":"683a33bea283950ac8f56ca7","serial_id":372,"title":"JAM","category":"Standstill Traffic","street":"Autopista Vespucio Norte","city":null,"reporter":null,"coordinates":{"lat":-33.456044,"lon":-70.767304}}
{"_id":"683a33bea283950ac8f56ca8","serial_id":373,"title":"ROAD_CLOSED","category":"Road Closed","street":"Depósito Express Pudahuel","city":"Pudahuel","reporter":"Subsecretaria de Transportes","coordinates":{"lat":-33.441051,"lon":-70.789626}}
{"_id":"683a33bea283950ac8f56ca9","serial_id":374,"title":"ROAD_CLOSED","category":"Road Closed","street":"Av. San Pablo","city":"Pudahuel","reporter":"Subsecretaria de Transportes","coordinates":{"lat":-33.443729,"lon":-70.784164}}
{"_id":{"$oid":"683b6d88d2ee88adfbe640a9"},"serial_id":376,"title":"ROAD_CLOSED","category":"Road Closed","street":"Av. San Pablo","city":"Pudahuel","reporter":"Subsecretaria de Transportes","coordinates":{"lat":-33.442797,"lon":-70.789916}}
{"_id":"683a33bea283950ac8f56caa","serial_id":377,"title":"ROAD_CLOSED","category":"Road Closed","street":"Acceso a Autopista Américo Vespucio > Ruta 68 / Las Condes","city":null,"reporter":"Gasparfox","coordinates":{"lat":-33.454313,"lon":-70.769138}}
{"_id":"683a33bea283950ac8f56cab","serial_id":378,"title":"ROAD_CLOSED","category":"Road Closed","street":"Puerto Madero","city":"Pudahuel","reporter":"LATAM Waze Editors Hub Account","coordinates":{"lat":-33.450615,"lon":-70.784036}}
{"_id":"683a33bea283950ac8f56cac","serial_id":379,"title":"HAZARD","category":"Road Hazard","street":"El Abeto","city":"Pudahuel","reporter":null,"coordinates":{"lat":-33.455855,"lon":-70.760286}}
{"_id":"683a33bea283950ac8f56cc1","serial_id":400,"title":"JAM","category":"Standstill Traffic","street":"Departamental","city":"San Miguel","reporter":"nnicomv","coordinates":{"lat":-33.501956,"lon":-70.660211}}
{"_id":"683a33bea283950ac8f56cc2","serial_id":401,"title":"JAM","category":"Heavy Traffic","street":"Gran Avenida José Miguel Carrera","city":"San Miguel","reporter":"Bj710G","coordinates":{"lat":-33.511932,"lon":-70.657402}}
{"_id":"683a33bea283950ac8f56cc3","serial_id":402,"title":"HAZARD","category":"Pothole","street":"Av. Departamental","city":"San Miguel","reporter":null,"coordinates":{"lat":-33.50089,"lon":-70.664663}}
{"_id":"683a33bea283950ac8f56cc4","serial_id":403,"title":"CHIT_CHAT","category":"Chit-Chat","street":"Av. Departamental","city":"San Miguel","reporter":null,"coordinates":{"lat":-33.506863,"lon":-70.640483}}
{"_id":"683a33bea283950ac8f56cc5","serial_id":404,"title":"JAM","category":"Heavy Traffic","street":"Av. Departamental","city":"San Miguel","reporter":null,"coordinates":{"lat":-33.504019,"lon":-70.652628}}
{"_id":"683a33bea283950ac8f56cc6","serial_id":405,"title":"JAM","category":"Standstill Traffic","street":"6ª Avenida","city":"San Miguel","reporter":"FranciscoChDino8","coordinates":{"lat":-33.509271,"lon":-70.657575}}
{"_id":"683a33bea283950ac8f56cc7","serial_id":406,"title":"JAM","category":"Standstill Traffic","street":"Gran Avenida José Miguel Carrera","city":"La Cisterna","reporter":"fredduzkyFreddy","coordinates":{"lat":-33.528101,"lon":-70.661937}}
{"_id":"683a33bea283950ac8f56cc8","serial_id":407,"title":"JAM","category":"Heavy Traffic","street":"Av. El Parrón","city":"La Cisterna","reporter":"jgodoyg","coordinates":{"lat":-33.526864,"lon":-70.659149}}
{"_id":"683a33bea283950ac8f56cc9","serial_id":408,"title":"JAM","category":"Heavy Traffic","street":"Av. Presidente José Joaquín Prieto Vial","city":"San Miguel","reporter":null,"coordinates":{"lat":-33.503752,"lon":-70.667487}}
{"_id":"683a33bea283950ac8f56cca","serial_id":409,"title":"JAM","category":"Standstill Traffic","street":"Av. Fernández Albano","city":"La Cisterna","reporter":null,"coordinates":{"lat":-33.523812,"lon":-70.658542}}
{"_id":"683a33bea283950ac8f56ccb","serial_id":410,"title":"JAM","category":"Standstill Traffic","street":"Gran Avenida José Miguel Carrera","city":"San Miguel","reporter":"world_qnc4e68l","coordinates":{"lat":-33.501615,"lon":-70.65448}}
{"_id":"683a33bea283950ac8f56ccc","serial_id":411,"title":"JAM","category":"Standstill Traffic","street":"Rivadavia","city":"San Ramón","reporter":null,"coordinates":{"lat":-33.529086,"lon":-70.642662}}
{"_id":"683a33bea283950ac8f56ccd","serial_id":412,"title":"HAZARD","category":"Pothole","street":"Av. Fernández Albano","city":"La Cisterna","reporter":null,"coordinates":{"lat":-33.52346,"lon":-70.66035}}
{"_id":"683a33bea283950ac8f56cce","serial_id":413,"title":"POLICE","category":"Police","street":"General Freire","city":"La Cisterna","reporter":"world_plcisvzr","coordinates":{"lat":-33.521006,"lon":-70.657781}}
{"_id":"683a33bea283950ac8f56ccf","serial_id":414,"title":"JAM","category":"Heavy Traffic","street":"Av. El Parrón","city":"La Cisterna","reporter":"jgodoyg","coordinates":{"lat":-33.52689,"lon":-70.658988}}
{"_id":"683a33bea283950ac8f56d30","serial_id":535,"title":"HAZARD","category":"Car Stopped on Shoulder","street":"Autopista Central","city":null,"reporter":null,"coordinates":{"lat":-33.610138,"lon":-70.716566}}
{"_id":"683a33bea283950ac8f56d31","serial_id":536,"title":"HAZARD","category":"Pothole","street":"Las Ágatas","city":"San Bernardo","reporter":null,"coordinates":{"lat":-33.61371,"lon":-70.703714}}
{"_id":"683a33bea283950ac8f56d32","serial_id":537,"title":"JAM","category":"Standstill Traffic","street":"Autopista Central","city":null,"reporter":null,"coordinates":{"lat":-33.602965,"lon":-70.716539}}
{"_id":"683a33bea283950ac8f56d33","serial_id":538,"title":"JAM","category":"Traffic Jam","street":"Victoria","city":"San Bernardo","reporter":null,"coordinates":{"lat":-33.59147,"lon":-70.702047}}
{"_id":"683a33bea283950ac8f56d34","serial_id":539,"title":"JAM","category":"Traffic Jam","street":"Salida 21a-S > San Bernardo","city":null,"reporter":"josefigu3","coordinates":{"lat":-33.613972,"lon":-70.715738}}
{"_id":"683a33bea283950ac8f56d35","serial_id":540,"title":"HAZARD","category":"Car Stopped on Road","street":"Autopista Central","city":null,"reporter":"Frn17TS","coordinates":{"lat":-33.60856,"lon":-70.716737}}
{"_id":"683a33bea283950ac8f56d36","serial_id":541,"title":"HAZARD","category":"Pothole","street":"San Alfonso","city":"San Bernardo","reporter":"cibergrone","coordinates":{"lat":-33.597609,"lon":-70.712853}}
{"_id":"683a33bea283950ac8f56d37","serial_id":542,"title":"JAM","category":"Standstill Traffic","street":"Eyzaguirre","city":"San Bernardo","reporter":null,"coordinates":{"lat":-33.606054,"lon":-70.715751}}
{"_id":"683a33bea283950ac8f56d38","serial_id":543,"title":"JAM","category":"Heavy Traffic","street":"San José","city":"San Bernardo","reporter":null,"coordinates":{"lat":-33.59571,"lon":-70.709344}}
{"_id":"683a33bea283950ac8f56d39","serial_id":544,"title":"HAZARD","category":"Pothole","street":"El Topacio","city":"San Bernardo","reporter":"world_lea7k6ly","coordinates":{"lat":-33.615822,"lon":-70.70275}}
{"_id":"683a33bea283950ac8f56d3a","serial_id":545,"title":"JAM","category":"Traffic Jam","street":"Av. Colón Sur","city":"San Bernardo","reporter":null,"coordinates":{"lat":-33.59004,"lon":-70.703845}}
{"_id":"683a33bea283950ac8f56d4f","serial_id":566,"title":"HAZARD","category":"Pothole","street":"Av. Claudio Arrau","city":"Pudahuel","reporter":null,"coordinates":{"lat":-33.45347,"lon":-70.743438}}
{"_id":"683a33bea283950ac8f56d50","serial_id":567,"title":"JAM","category":"Standstill Traffic","street":"Av. Teniente Luis Cruz Martínez","city":"Maipú","reporter":"world_6863oppn","coordinates":{"lat":-33.469043,"lon":-70.737303}}
{"_id":"683a33bea283950ac8f56d51","serial_id":568,"title":"POLICE","category":"Police","street":"Av. Santa Victoria","city":"Pudahuel","reporter":null,"coordinates":{"lat":-33.442838,"lon":-70.758298}}
{"_id":"683a33bea283950ac8f56d52","serial_id":569,"title":"HAZARD","category":"Pothole","street":"Av. Teniente Luis Cruz Martínez","city":"Pudahuel","reporter":null,"coordinates":{"lat":-33.441221,"lon":-70.74062}}
{"_id":"683a33bea283950ac8f56d53","serial_id":570,"title":"JAM","category":"Heavy Traffic","street":"Av. General Óscar Bonilla","city":"Lo Prado","reporter":null,"coordinates":{"lat":-33.452576,"lon":-70.738846}}
{"_id":"683a33bea283950ac8f56d54","serial_id":571,"title":"JAM","category":"Moderate Traffic","street":"Mar de Drake","city":"Pudahuel","reporter":null,"coordinates":{"lat":-33.456654,"lon":-70.74511}}
{"_id":"683a33bea283950ac8f56d55","serial_id":572,"title":"JAM","category":"Heavy Traffic","street":"Gabriela Mistral","city":"Lo Prado","reporter":null,"coordinates":{"lat":-33.452244,"lon":-70.737845}}
{"_id":"683a33bea283950ac8f56d56","serial_id":573,"title":"HAZARD","category":"Construction","street":"El Cobre","city":"Pudahuel","reporter":"JoseMalebranXDJmpChile","coordinates":{"lat":-33.446097,"lon":-70.752547}}
{"_id":"683a33bea283950ac8f56d57","serial_id":574,"title":"JAM","category":"Heavy Traffic","street":"Av. Las Torres","city":"Estación Central","reporter":null,"coordinates":{"lat":-33.466839,"lon":-70.731412}}
{"_id":"683a33bea283950ac8f56d58","serial_id":575,"title":"JAM","category":"Standstill Traffic","street":"Av. Las Torres","city":"Lo Prado","reporter":"Osvaldo2809","coordinates":{"lat":-33.442962,"lon":-70.730964}}
{"_id":"683a33bea283950ac8f56d59","serial_id":576,"title":"JAM","category":"Traffic Jam","street":"Av. Claudio Arrau","city":"Pudahuel","reporter":"MxtiChain","coordinates":{"lat":-33.453898,"lon":-70.741439}}
{"_id":"683a33bea283950ac8f56d5a","serial_id":577,"title":"CHIT_CHAT","category":"Chit-Chat","street":"Av. General Óscar Bonilla","city":"Pudahuel","reporter":"some1killer","coordinates":{"lat":-33.452306,"lon":-70.74084}}
{"_id":"683a33bea283950ac8f56d5b","serial_id":578,"title":"JAM","category":"Heavy Traffic","street":"Av. Teniente Luis Cruz Martínez","city":"Pudahuel","reporter":null,"coordinates":{"lat":-33.455447,"lon":-70.738559}}
{"_id":"683a33bea283950ac8f56d6f","serial_id":599,"title":"JAM","category":"Heavy Traffic","street":"Ruta G-30 / Camino a Lonquén","city":null,"reporter":"Alvaro-Rapaz","coordinates":{"lat":-33.632505,"lon":-70.807847}}
{"_id":"683a33bea283950ac8f56d70","serial_id":600,"title":"JAM","category":"Heavy Traffic","street":"Ruta G-30 / Camino a Lonquén","city":null,"reporter":"world_fcg4b7e4","coordinates":{"lat":-33.626139,"lon":-70.801516}}
{"_id":"683a33bea283950ac8f56d71","serial_id":601,"title":"CHIT_CHAT","category":"Chit-Chat","street":"Santa Inés","city":"Calera de Tango","reporter":"world_1pqwyzx4","coordinates":{"lat":-33.631356,"lon":-70.797886}}
{"_id":"683a33bea283950ac8f56d72","serial_id":602,"title":"POLICE","category":"Police","street":"Santa Inés","city":"Calera de Tango","reporter":null,"coordinates":{"lat":-33.630352,"lon":-70.801516}}
{"_id":"683a33bea283950ac8f56d8e","serial_id":639,"title":"POLICE","category":"Police","street":"Poema El Regreso","city":"San Bernardo","reporter":null,"coordinates":{"lat":-33.609554,"lon":-70.682196}}
{"_id":"683a33bea283950ac8f56d8f","serial_id":640,"title":"JAM","category":"Traffic Jam","street":"San José","city":"San Bernardo","reporter":"world_fyqo8c51","coordinates":{"lat":-33.604595,"lon":-70.68322}}
{"_id":"683a33bea283950ac8f56d90","serial_id":641,"title":"JAM","category":"Traffic Jam","street":"San José","city":"San Bernardo","reporter":null,"coordinates":{"lat":-33.597351,"lon":-70.698305}}
{"_id":"683a33bea283950ac8f56d91","serial_id":642,"title":"POLICE","category":"Police","street":"Av. Portales","city":"San Bernardo","reporter":null,"coordinates":{"lat":-33.616341,"lon":-70.697908}}
{"_id":"683a33bea283950ac8f56d92","serial_id":643,"title":"JAM","category":"Standstill Traffic","street":"Barros Arana","city":"San Bernardo","reporter":"JJRCtico","coordinates":{"lat":-33.594819,"lon":-70.69902}}
{"_id":"683a33bea283950ac8f56da5","serial_id":664,"title":"JAM","category":"Traffic Jam","street":"Av. Santa Rosa","city":"San Miguel","reporter":null,"coordinates":{"lat":-33.503073,"lon":-70.639147}}
{"_id":"683a33bea283950ac8f56da6","serial_id":665,"title":"JAM","category":"Heavy Traffic","street":"Av. Cardenal Raúl Silva Henríquez","city":"La Granja","reporter":null,"coordinates":{"lat":-33.523538,"lon":-70.625606}}
{"_id":"683a33bea283950ac8f56da7","serial_id":666,"title":"JAM","category":"Standstill Traffic","street":"Av. Yungay","city":"La Granja","reporter":null,"coordinates":{"lat":-33.523044,"lon":-70.611883}}
{"_id":"683a33bea283950ac8f56da8","serial_id":667,"title":"JAM","category":"Heavy Traffic","street":"Av. Departamental","city":"San Joaquín","reporter":"world_vszs7uuf","coordinates":{"lat":-33.507485,"lon":-70.628122}}
{"_id":"683a33bea283950ac8f56da9","serial_id":668,"title":"JAM","category":"Standstill Traffic","street":"Av. Santa Rosa","city":"San Ramón","reporter":null,"coordinates":{"lat":-33.526103,"lon":-70.635814}}
{"_id":"683a33bea283950ac8f56daa","serial_id":669,"title":"JAM","category":"Standstill Traffic","street":"Punta Arenas","city":"La Florida","reporter":"nilatorrea","coordinates":{"lat":-33.516266,"lon":-70.610904}}
{"_id":"683a33bea283950ac8f56dab","serial_id":670,"title":"JAM","category":"Heavy Traffic","street":"Av. Cardenal Raúl Silva Henríquez","city":"La Granja","reporter":"Luifi_90","coordinates":{"lat":-33.525534,"lon":-70.624892}}
{"_id":"683a33bea283950ac8f56dac","serial_id":671,"title":"JAM","category":"Traffic Jam","street":"Av. Cardenal Raúl Silva Henríquez","city":"La Granja","reporter":"OscuridadProfunda","coordinates":{"lat":-33.528815,"lon":-70.623963}}
{"_id":"683a33bea283950ac8f56dad","serial_id":672,"title":"HAZARD","category":"Pothole","street":"Corredor transporte público Las Industrias","city":"San Joaquín","reporter":null,"coordinates":{"lat":-33.511947,"lon":-70.625148}}
{"_id":"683a33bea283950ac8f56dae","serial_id":673,"title":"HAZARD","category":"Pothole","street":"Llico","city":"San Joaquín","reporter":"world_bj9oxfpt","coordinates":{"lat":-33.504818,"lon":-70.627847}}
{"_id":"683a33bea283950ac8f56daf","serial_id":674,"title":"JAM","category":"Traffic Jam","street":"Av. Departamental","city":"San Joaquín","reporter":"TheStig37","coordinates":{"lat":-33.507821,"lon":-70.619365}}
{"_id":"683a33bea283950ac8f56db0","serial_id":675,"title":"JAM","category":"Standstill Traffic","street":"Av. Santa Rosa","city":"La Granja","reporter":null,"coordinates":{"lat":-33.529372,"lon":-70.635281}}
{"_id":"683a33bea283950ac8f56db1","serial_id":676,"title":"JAM","category":"Standstill Traffic","street":"Av. Santa Rosa","city":"San Ramón","reporter":null,"coordinates":{"lat":-33.527416,"lon":-70.635671}}
{"_id":"683a33bea283950ac8f56db2","serial_id":677,"title":"HAZARD","category":"Pothole","street":"Francisco de Toledo","city":"San Joaquín","reporter":"world_bj9oxfpt","coordinates":{"lat":-33.506103,"lon":-70.631212}}
{"_id":"683a33bea283950ac8f56db3","serial_id":678,"title":"JAM","category":"Standstill Traffic","street":"Av. Las Industrias","city":"San Joaquín","reporter":null,"coordinates":{"lat":-33.50427,"lon":-70.626919}}
{"_id":"683a33bea283950ac8f56db4","serial_id":679,"title":"JAM","category":"Standstill Traffic","street":"Santa Ana","city":"La Granja","reporter":null,"coordinates":{"lat":-33.52554,"lon":-70.635458}}
{"_id":"683a33bea283950ac8f56db5","serial_id":680,"title":"JAM","category":"Standstill Traffic","street":"Av. Vicuña Mackenna","city":"San Joaquín","reporter":"sofiayemilio20142020","coordinates":{"lat":-33.506332,"lon":-70.61444}}
{"_id":"683a33bea283950ac8f56db6","serial_id":681,"title":"ROAD_CLOSED","category":"Road Closed","street":"Gaspar de Espinoza","city":"San Joaquín","reporter":"Mech-Kyo","coordinates":{"lat":-33.503754,"lon":-70.63485}}
{"_id":"683a33bea283950ac8f56db7","serial_id":682,"title":"JAM","category":"Traffic Jam","street":"Petrobras","city":"San Miguel","reporter":"MCarolFernandez","coordinates":{"lat":-33.513244,"lon":-70.637574}}
{"_id":"683a33bea283950ac8f56db8","serial_id":683,"title":"JAM","category":"Traffic Jam","street":"Punta Arenas","city":"La Granja","reporter":"world_sv1e0hdo","coordinates":{"lat":-33.524182,"lon":-70.610028}}
{"_id":"683a33bea283950ac8f56dd9","serial_id":724,"title":"JAM","category":"Heavy Traffic","street":"Ruta 68","city":null,"reporter":"DonWensesLadin","coordinates":{"lat":-33.458243,"lon":-70.714806}}
{"_id":"683a33bea283950ac8f56dda","serial_id":725,"title":"POLICE","category":"Hiding Police","street":"Radal","city":"Estación Central","reporter":null,"coordinates":{"lat":-33.455409,"lon":-70.701318}}
{"_id":"683a33bea283950ac8f56ddb","serial_id":726,"title":"HAZARD","category":"Pothole","street":"Santa Zenobia","city":"Lo Prado","reporter":null,"coordinates":{"lat":-33.444803,"lon":-70.709545}}
{"_id":"683a33bea283950ac8f56ddc","serial_id":727,"title":"HAZARD","category":"Pothole","street":"Santo Domingo","city":"Quinta Normal","reporter":null,"coordinates":{"lat":-33.441982,"lon":-70.704539}}
{"_id":"683a33bea283950ac8f56ddd","serial_id":728,"title":"POLICE","category":"Police","street":"Los Maitenes","city":"Estación Central","reporter":"world_8u2ly62n","coordinates":{"lat":-33.464053,"lon":-70.705677}}
{"_id":"683a33bea283950ac8f56dde","serial_id":729,"title":"POLICE","category":"Police","street":"Nueva Imperial","city":"Quinta Normal","reporter":null,"coordinates":{"lat":-33.445971,"lon":-70.705687}}
{"_id":"683a33bea283950ac8f56ddf","serial_id":730,"title":"CHIT_CHAT","category":"Chit-Chat","street":"Av. Las Rejas Sur","city":"Estación Central","reporter":"world_6akc8pbd","coordinates":{"lat":-33.458349,"lon":-70.705623}}
{"_id":"683a33bea283950ac8f56de1","serial_id":732,"title":"HAZARD","category":"Pothole","street":"Santa Zenobia","city":"Lo Prado","reporter":null,"coordinates":{"lat":-33.444853,"lon":-70.708426}}
{"_id":"683a33bea283950ac8f56de2","serial_id":733,"title":"POLICE","category":"Hiding Police","street":"Sagitario","city":"Lo Prado","reporter":null,"coordinates":{"lat":-33.453972,"lon":-70.708562}}
{"_id":"683a33bea283950ac8f56de3","serial_id":734,"title":"JAM","category":"Traffic Jam","street":"Av. Gladys Marín Millie","city":"Estación Central","reporter":"CrespoIuis","coordinates":{"lat":-33.459569,"lon":-70.714222}}
{"_id":"683a33bea283950ac8f56de4","serial_id":735,"title":"JAM","category":"Standstill Traffic","street":"Av. Libertador Bernardo O'Higgins","city":"Estación Central","reporter":"YessieALM","coordinates":{"lat":-33.456623,"lon":-70.702083}}
{"_id":"683a33bea283950ac8f56de5","serial_id":736,"title":"JAM","category":"Standstill Traffic","street":"Ruta 68","city":null,"reporter":"k0rb3n","coordinates":{"lat":-33.457773,"lon":-70.717071}}
{"_id":"683a33bea283950ac8f56de6","serial_id":737,"title":"HAZARD","category":"Pothole","street":"Santo Domingo","city":"Quinta Normal","reporter":null,"coordinates":{"lat":-33.441981,"lon":-70.704475}}
{"_id":"683a33bea283950ac8f56de7","serial_id":738,"title":"JAM","category":"Standstill Traffic","street":"Av. María Rozas Velásquez","city":"Estación Central","reporter":"CristianVarela1997","coordinates":{"lat":-33.45526,"lon":-70.705714}}
{"_id":"683a33bea283950ac8f56de8","serial_id":739,"title":"JAM","category":"Heavy Traffic","street":"Av. María Rozas Velásquez","city":"Lo Prado","reporter":null,"coordinates":{"lat":-33.455556,"lon":-70.705868}}
{"_id":"683a33bea283950ac8f56de9","serial_id":740,"title":"JAM","category":"Standstill Traffic","street":"Neptuno","city":"Estación Central","reporter":"jptorresb","coordinates":{"lat":-33.458916,"lon":-70.721469}}
{"_id":"683a33bea283950ac8f56dea","serial_id":741,"title":"JAM","category":"Traffic Jam","street":"Av. Gladys Marín Millie","city":"Estación Central","reporter":"world_6863oppn","coordinates":{"lat":-33.462384,"lon":-70.719657}}
{"_id":"683a33bea283950ac8f56e26","serial_id":804,"title":"JAM","category":"Heavy Traffic","street":"Los Sauces","city":"Padre Hurtado","reporter":"donyuz","coordinates":{"lat":-33.559254,"lon":-70.82667}}
{"_id":"683a33bea283950ac8f56e28","serial_id":806,"title":"JAM","category":"Heavy Traffic","street":"Ruta 78","city":null,"reporter":null,"coordinates":{"lat":-33.557607,"lon":-70.824535}}
{"_id":"683a33bea283950ac8f56e29","serial_id":807,"title":"HAZARD","category":"Object on Road","street":"Ruta G-260 / Camino El Trebal","city":null,"reporter":"world_mam950xh","coordinates":{"lat":-33.533016,"lon":-70.82837}}
{"_id":"683a33bea283950ac8f56e3c","serial_id":828,"title":"JAM","category":"Heavy Traffic","street":"Autopista Vespucio Sur","city":null,"reporter":null,"coordinates":{"lat":-33.504956,"lon":-70.58932}}
{"_id":"683a33bea283950ac8f56e3d","serial_id":829,"title":"CHIT_CHAT","category":"Chit-Chat","street":"Acceso Estacionamiento Subterráneo","city":"La Florida","reporter":"BatManForever7","coordinates":{"lat":-33.511104,"lon":-70.607926}}
{"_id":"683a33bea283950ac8f56e3e","serial_id":830,"title":"JAM","category":"Standstill Traffic","street":"Paso inferior Av. Las Torres","city":null,"reporter":null,"coordinates":{"lat":-33.500203,"lon":-70.587456}}
{"_id":"683a33bea283950ac8f56e3f","serial_id":831,"title":"JAM","category":"Standstill Traffic","street":"Av. Vicuña Mackenna","city":"La Florida","reporter":"misaeltrincado","coordinates":{"lat":-33.528297,"lon":-70.596176}}
{"_id":"683a33bea283950ac8f56e40","serial_id":832,"title":"JAM","category":"Standstill Traffic","street":"Mirador Azul","city":"La Florida","reporter":"world_7fqtxnst","coordinates":{"lat":-33.512698,"lon":-70.605884}}
{"_id":"683a33bea283950ac8f56e41","serial_id":833,"title":"JAM","category":"Standstill Traffic","street":"Av. Departamental","city":"La Florida","reporter":"world_ewiu9d6o","coordinates":{"lat":-33.509774,"lon":-70.592838}}
{"_id":"683a33bea283950ac8f56e42","serial_id":834,"title":"HAZARD","category":"Pothole","street":"Peatones 7","city":"Peñalolén","reporter":"world_bj9oxfpt","coordinates":{"lat":-33.502937,"lon":-70.580288}}
{"_id":"683a33bea283950ac8f56e43","serial_id":835,"title":"JAM","category":"Heavy Traffic","street":"Av. Departamental","city":"La Florida","reporter":null,"coordinates":{"lat":-33.509175,"lon":-70.601101}}
{"_id":"683a33bea283950ac8f56e44","serial_id":836,"title":"HAZARD","category":"Pothole","street":"Las Zarcillas","city":"La Florida","reporter":"world_bj9oxfpt","coordinates":{"lat":-33.511437,"lon":-70.584521}}
{"_id":"683a33bea283950ac8f56e45","serial_id":837,"title":"JAM","category":"Standstill Traffic","street":"Av. Departamental","city":"La Florida","reporter":"Shizukita","coordinates":{"lat":-33.509441,"lon":-70.597569}}
{"_id":"683a33bea283950ac8f56e46","serial_id":838,"title":"JAM","category":"Standstill Traffic","street":"Froilán Roa","city":"La Florida","reporter":null,"coordinates":{"lat":-33.515582,"lon":-70.598609}}
{"_id":"683a33bea283950ac8f56e47","serial_id":839,"title":"JAM","category":"Standstill Traffic","street":"Av. Américo Vespucio","city":"La Florida","reporter":"world_085jqc84","coordinates":{"lat":-33.525866,"lon":-70.601739}}
{"_id":"683a33bea283950ac8f56e48","serial_id":840,"title":"JAM","category":"Traffic Jam","street":"Salida 39 > Vicuña Mackenna","city":null,"reporter":null,"coordinates":{"lat":-33.525351,"lon":-70.601373}}
{"_id":"683a33bea283950ac8f56e49","serial_id":841,"title":"JAM","category":"Heavy Traffic","street":"Acceso a Autopista Vespucio Sur","city":null,"reporter":null,"coordinates":{"lat":-33.503849,"lon":-70.588917}}
{"_id":"683a33bea283950ac8f56e4a","serial_id":842,"title":"JAM","category":"Standstill Traffic","street":"Av. Nueva 1","city":"La Florida","reporter":"cpino73","coordinates":{"lat":-33.512681,"lon":-70.594222}}
{"_id":"683a33bea283950ac8f56e4b","serial_id":843,"title":"ACCIDENT","category":"Accident","street":"Av. Punta Arenas","city":"La Granja","reporter":"Elguaro14","coordinates":{"lat":-33.52695,"lon":-70.609827}}
{"_id":"683a33bea283950ac8f56e4c","serial_id":844,"title":"JAM","category":"Heavy Traffic","street":"Av. Vicuña Mackenna Poniente","city":"La Florida","reporter":"Rextanaka","coordinates":{"lat":-33.521406,"lon":-70.600655}}
{"_id":"683a33bea283950ac8f56e4d","serial_id":845,"title":"HAZARD","category":"Pothole","street":"Las Zarcillas","city":"La Florida","reporter":"world_bj9oxfpt","coordinates":{"lat":-33.511477,"lon":-70.584934}}
{"_id":"683a33bea283950ac8f56e4e","serial_id":846,"title":"JAM","category":"Heavy Traffic","street":"Paso bajo nivel / Froilán Lagos","city":"La Florida","reporter":"Metalero6666","coordinates":{"lat":-33.514246,"lon":-70.593744}}
{"_id":"683a33bea283950ac8f56e4f","serial_id":847,"title":"JAM","category":"Heavy Traffic","street":"Av. Departamental","city":"Peñalolén","reporter":"0c1172c261064a78aed8ba20552b45b4","coordinates":{"lat":-33.509923,"lon":-70.587189}}
{"_id":"683a33bea283950ac8f56e50","serial_id":848,"title":"JAM","category":"Standstill Traffic","street":"Autopista Vespucio Sur","city":null,"reporter":null,"coordinates":{"lat":-33.517518,"lon":-70.594751}}
{"_id":"683a33bea283950ac8f56e51","serial_id":849,"title":"JAM","category":"Heavy Traffic","street":"Paso inferior Av. Las Torres","city":null,"reporter":null,"coordinates":{"lat":-33.500366,"lon":-70.586608}}
{"_id":"683a33bea283950ac8f56e52","serial_id":850,"title":"JAM","category":"Standstill Traffic","street":"Av. Américo Vespucio","city":"La Florida","reporter":"world_z0w7hu3s","coordinates":{"lat":-33.527399,"lon":-70.602805}}
{"_id":"683a33bea283950ac8f56e53","serial_id":851,"title":"JAM","category":"Traffic Jam","street":"Autopista Vespucio Sur","city":null,"reporter":null,"coordinates":{"lat":-33.502519,"lon":-70.588277}}
{"_id":"683a33bea283950ac8f56e54","serial_id":852,"title":"POLICE","category":"Police","street":"Salida>Vicuña Mackenna","city":"La Florida","reporter":null,"coordinates":{"lat":-33.511167,"lon":-70.608085}}
{"_id":"683a33bea283950ac8f56e55","serial_id":853,"title":"JAM","category":"Traffic Jam","street":"Autopista Vespucio Sur","city":null,"reporter":"world_c1fy2hzi","coordinates":{"lat":-33.528427,"lon":-70.603939}}
{"_id":"683a33bea283950ac8f56e56","serial_id":854,"title":"HAZARD","category":"Car Stopped on Shoulder","street":"Corredor transporte público Vicuña Mackenna","city":"La Florida","reporter":null,"coordinates":{"lat":-33.519447,"lon":-70.602846}}
{"_id":"683a33bea283950ac8f56e57","serial_id":855,"title":"JAM","category":"Heavy Traffic","street":"Av. Departamental","city":"La Florida","reporter":"DepaseoporLima","coordinates":{"lat":-33.510859,"lon":-70.589252}}
{"_id":"683a33bea283950ac8f56e58","serial_id":856,"title":"HAZARD","category":"Pothole","street":"Central","city":"Peñalolén","reporter":null,"coordinates":{"lat":-33.503638,"lon":-70.583162}}
{"_id":"683a33bea283950ac8f56e59","serial_id":857,"title":"JAM","category":"Heavy Traffic","street":"Salida>Departamental","city":"La Florida","reporter":"hunterx1278","coordinates":{"lat":-33.509027,"lon":-70.606164}}
{"_id":"683a33bea283950ac8f56e5a","serial_id":858,"title":"JAM","category":"Standstill Traffic","street":"Av. Departamental","city":"La Florida","reporter":"kronhos888","coordinates":{"lat":-33.508975,"lon":-70.603698}}
{"_id":"683a33bea283950ac8f56e5b","serial_id":859,"title":"JAM","category":"Heavy Traffic","street":"Acceso a Autopista Vespucio Sur","city":null,"reporter":"world_c1fy2hzi","coordinates":{"lat":-33.5255,"lon":-70.602131}}
{"_id":"683a33bea283950ac8f56e5c","serial_id":860,"title":"JAM","category":"Heavy Traffic","street":"Autopista Vespucio Sur","city":null,"reporter":null,"coordinates":{"lat":-33.523547,"lon":-70.599792}}
{"_id":"683a33bea283950ac8f56e5d","serial_id":861,"title":"JAM","category":"Heavy Traffic","street":"Av. Vicuña Mackenna Poniente","city":"La Florida","reporter":null,"coordinates":{"lat":-33.515068,"lon":-70.607403}}
{"_id":"683a33bea283950ac8f56e5e","serial_id":862,"title":"JAM","category":"Heavy Traffic","street":"Exequiel Fernández","city":"La Florida","reporter":"world_iqzqwegb","coordinates":{"lat":-33.510984,"lon":-70.603002}}
{"_id":"683a33bea283950ac8f56e5f","serial_id":863,"title":"HAZARD","category":"Road Hazard","street":"Av. Vicuña Mackenna Oriente","city":"La Florida","reporter":"cosashopcl","coordinates":{"lat":-33.520605,"lon":-70.599263}}
{"_id":"683a33bea283950ac8f56e60","serial_id":864,"title":"JAM","category":"Standstill Traffic","street":"Av. Lía Aguirre","city":"La Florida","reporter":"world_z0w7hu3s","coordinates":{"lat":-33.522911,"lon":-70.602658}}
{"_id":"683a33bea283950ac8f56e61","serial_id":865,"title":"JAM","category":"Standstill Traffic","street":"Av. Vicuña Mackenna","city":"La Florida","reporter":"world_sft7af5h","coordinates":{"lat":-33.529634,"lon":-70.595284}}
{"_id":"683a33bea283950ac8f56e76","serial_id":886,"title":"HAZARD","category":"Pothole","street":"Av. Calera de Tango","city":"Calera de Tango","reporter":null,"coordinates":{"lat":-33.631013,"lon":-70.758513}}
{"_id":"683a33bea283950ac8f56e77","serial_id":887,"title":"POLICE","category":"Police with Mobile Camera","street":"Av. Calera de Tango","city":"Calera de Tango","reporter":"bx16soupapes","coordinates":{"lat":-33.630843,"lon":-70.75926}}
{"_id":"683a33bea283950ac8f56e78","serial_id":888,"title":"HAZARD","category":"Car Stopped on Shoulder","street":"Santa Inés","city":"Calera de Tango","reporter":"FranArancibiaGallardo","coordinates":{"lat":-33.643918,"lon":-70.753481}}
{"_id":"683a33bea283950ac8f56e79","serial_id":889,"title":"HAZARD","category":"Pothole","street":"Camino El Barrancón","city":"San Bernardo","reporter":null,"coordinates":{"lat":-33.64717,"lon":-70.735594}}
{"_id":"683a33bea283950ac8f56e7a","serial_id":890,"title":"POLICE","category":"Police","street":"Av. Calera de Tango","city":"Calera de Tango","reporter":"bx16soupapes","coordinates":{"lat":-33.630843,"lon":-70.759261}}
{"_id":"683a33bea283950ac8f56e8a","serial_id":911,"title":"POLICE","category":"Police","street":"El Ombú","city":"La Pintana","reporter":"chelyrtonsenna","coordinates":{"lat":-33.594155,"lon":-70.613174}}
{"_id":"683a33bea283950ac8f56e8b","serial_id":912,"title":"POLICE","category":"Police","street":"Batallón Chacabuco","city":"La Pintana","reporter":null,"coordinates":{"lat":-33.591674,"lon":-70.625261}}
{"_id":"683a33bea283950ac8f56e8c","serial_id":913,"title":"HAZARD","category":"Pothole","street":"El Olivar","city":"La Pintana","reporter":null,"coordinates":{"lat":-33.614995,"lon":-70.631843}}
{"_id":"683a33bea283950ac8f56e9f","serial_id":934,"title":"JAM","category":"Traffic Jam","street":"Av. Américo Vespucio","city":"Pudahuel","reporter":null,"coordinates":{"lat":-33.393003,"lon":-70.768298}}
{"_id":"683a33bea283950ac8f56eb2","serial_id":955,"title":"ACCIDENT","category":"Accident","street":"San Francisco de Borja","city":"Estación Central","reporter":null,"coordinates":{"lat":-33.45411,"lon":-70.680459}}
{"_id":"683a33bea283950ac8f56eb3","serial_id":956,"title":"JAM","category":"Heavy Traffic","street":"Av. 5 de Abril","city":"Estación Central","reporter":"Bao19","coordinates":{"lat":-33.460289,"lon":-70.695252}}
{"_id":"683a33bea283950ac8f56eb4","serial_id":957,"title":"POLICE","category":"Police","street":"Av. Almirante Blanco Encalada","city":"Santiago","reporter":"namwordl","coordinates":{"lat":-33.45884,"lon":-70.677303}}
{"_id":"683a33bea283950ac8f56eb5","serial_id":958,"title":"HAZARD","category":"Car Stopped on Shoulder","street":"Autopista Central - Eje Gral. Velásquez","city":null,"reporter":"chavin83","coordinates":{"lat":-33.455564,"lon":-70.690406}}
{"_id":"683a33bea283950ac8f56eb6","serial_id":959,"title":"HAZARD","category":"Car Stopped on Shoulder","street":"Bascuñán Guerrero","city":"Santiago","reporter":"alexinfiltrado","coordinates":{"lat":-33.459739,"lon":-70.673314}}
{"_id":"683a33bea283950ac8f56eb7","serial_id":960,"title":"CHIT_CHAT","category":"Chit-Chat","street":"Av. Almirante Blanco Encalada","city":"Santiago","reporter":"agescudero","coordinates":{"lat":-33.45814,"lon":-70.678126}}
{"_id":"683a33bea283950ac8f56eb8","serial_id":961,"title":"HAZARD","category":"Traffic Light Fault","street":"Av. 5 de Abril","city":"Estación Central","reporter":"camibluue","coordinates":{"lat":-33.459823,"lon":-70.694152}}
{"_id":"683a33bea283950ac8f56eb9","serial_id":962,"title":"JAM","category":"Standstill Traffic","street":"General Amengual","city":"Estación Central","reporter":"MaestroOJ","coordinates":{"lat":-33.453397,"lon":-70.697748}}
{"_id":"683a33bea283950ac8f56eba","serial_id":963,"title":"JAM","category":"Heavy Traffic","street":"Salida 11 > Av. Arica / 5 de Abril","city":null,"reporter":null,"coordinates":{"lat":-33.459862,"lon":-70.68871}}
{"_id":"683a33bea283950ac8f56ebb","serial_id":964,"title":"JAM","category":"Heavy Traffic","street":"Autopista Central - Eje Gral. Velásquez","city":null,"reporter":"world_v5f6c8t1","coordinates":{"lat":-33.452032,"lon":-70.691608}}
{"_id":"683a33bea283950ac8f56ebc","serial_id":965,"title":"POLICE","category":"Police","street":"Av. Almirante Blanco Encalada","city":"Santiago","reporter":"namwordl","coordinates":{"lat":-33.45872,"lon":-70.675825}}
{"_id":"683a33bea283950ac8f56ebd","serial_id":966,"title":"JAM","category":"Standstill Traffic","street":"Gorbea","city":"Santiago","reporter":"world_wmftwknk","coordinates":{"lat":-33.455119,"lon":-70.675493}}
{"_id":"683a33bea283950ac8f56ebe","serial_id":967,"title":"JAM","category":"Standstill Traffic","street":"Av. Apóstol Santiago","city":"Quinta Normal","reporter":"FABIMATER","coordinates":{"lat":-33.443244,"lon":-70.692183}}
{"_id":"683a33bea283950ac8f56ebf","serial_id":968,"title":"JAM","category":"Standstill Traffic","street":"Nueva Imperial","city":"Quinta Normal","reporter":null,"coordinates":{"lat":-33.444574,"lon":-70.692606}}
{"_id":"683a33bea283950ac8f56ec0","serial_id":969,"title":"HAZARD","category":"Traffic Light Fault","street":"Arica","city":"Estación Central","reporter":"camibluue","coordinates":{"lat":-33.459123,"lon":-70.691122}}
{"_id":"683a33bea283950ac8f56ec1","serial_id":970,"title":"JAM","category":"Heavy Traffic","street":"Nicasio Retamales","city":"Estación Central","reporter":null,"coordinates":{"lat":-33.455613,"lon":-70.688513}}
{"_id":"683a33bea283950ac8f56ec2","serial_id":971,"title":"CHIT_CHAT","category":"Chit-Chat","street":"Dolores","city":"Estación Central","reporter":"world_ty68fr2t","coordinates":{"lat":-33.457541,"lon":-70.682261}}
{"_id":"683a33bea283950ac8f56ec3","serial_id":972,"title":"ACCIDENT","category":"Accident","street":"San Alberto Hurtado","city":"Estación Central","reporter":null,"coordinates":{"lat":-33.45583,"lon":-70.690491}}
{"_id":"683a33bea283950ac8f56ec4","serial_id":973,"title":"JAM","category":"Heavy Traffic","street":"Nicasio Retamales","city":"Estación Central","reporter":null,"coordinates":{"lat":-33.458409,"lon":-70.687915}}
{"_id":"683a33bea283950ac8f56ec5","serial_id":974,"title":"POLICE","category":"Police","street":"Bascuñán Guerrero","city":"Santiago","reporter":null,"coordinates":{"lat":-33.455205,"lon":-70.674389}}
{"_id":"683a33bea283950ac8f56ec6","serial_id":975,"title":"HAZARD","category":"Construction","street":"Nueva Imperial","city":"Quinta Normal","reporter":null,"coordinates":{"lat":-33.444775,"lon":-70.693787}}
{"_id":"683a33bea283950ac8f56ec7","serial_id":976,"title":"HAZARD","category":"Construction","street":"Av. Libertador Bernardo O'Higgins","city":"Estación Central","reporter":"world_vspqwjkx","coordinates":{"lat":-33.45572,"lon":-70.699355}}
{"_id":"683a33bea283950ac8f56ec8","serial_id":977,"title":"JAM","category":"Heavy Traffic","street":"Arica","city":"Estación Central","reporter":"Mauro22v","coordinates":{"lat":-33.458906,"lon":-70.682112}}
{"_id":"683a33bea283950ac8f56ec9","serial_id":978,"title":"HAZARD","category":"Pothole","street":"Arica","city":"Estación Central","reporter":null,"coordinates":{"lat":-33.459082,"lon":-70.690033}}
{"_id":"683a33bea283950ac8f56eca","serial_id":979,"title":"HAZARD","category":"Pothole","street":"San Francisco de Borja","city":"Estación Central","reporter":null,"coordinates":{"lat":-33.466537,"lon":-70.681467}}
{"_id":"683a33bea283950ac8f56ecb","serial_id":980,"title":"HAZARD","category":"Pothole","street":"Uspallata","city":"Estación Central","reporter":null,"coordinates":{"lat":-33.467902,"lon":-70.696419}}
{"_id":"683a33bea283950ac8f56ecc","serial_id":981,"title":"JAM","category":"Heavy Traffic","street":"Arica","city":"Estación Central","reporter":"world_2vdrt4uk","coordinates":{"lat":-33.459061,"lon":-70.688812}}
{"_id":"683a33bea283950ac8f56ecd","serial_id":982,"title":"HAZARD","category":"Road Hazard","street":"Av. 5 de Abril","city":"Estación Central","reporter":"world_2e2k48bh","coordinates":{"lat":-33.461257,"lon":-70.697258}}
{"_id":"683a33bea283950ac8f56ece","serial_id":983,"title":"CHIT_CHAT","category":"Chit-Chat","street":"Av. Almirante Blanco Encalada","city":"Santiago","reporter":"namwordl","coordinates":{"lat":-33.45872,"lon":-70.675816}}
{"_id":"683a33bea283950ac8f56ecf","serial_id":984,"title":"JAM","category":"Standstill Traffic","street":"General Amengual","city":"Estación Central","reporter":"world_7v6kfjuy","coordinates":{"lat":-33.458768,"lon":-70.696417}}
{"_id":"683a33bea283950ac8f56ed0","serial_id":985,"title":"JAM","category":"Standstill Traffic","street":"Av. Padre Alberto Hurtado","city":"Estación Central","reporter":null,"coordinates":{"lat":-33.467149,"lon":-70.68801}}
{"_id":"683a33bea283950ac8f56ed1","serial_id":986,"title":"HAZARD","category":"Pothole","street":"Av. Libertador Bernardo O'Higgins","city":"Santiago","reporter":null,"coordinates":{"lat":-33.450626,"lon":-70.678518}}
{"_id":"683a33bea283950ac8f56ed2","serial_id":987,"title":"JAM","category":"Standstill Traffic","street":"San Alberto Hurtado","city":"Estación Central","reporter":"camilogralo12","coordinates":{"lat":-33.451231,"lon":-70.692017}}
{"_id":"683a33bea283950ac8f56ed3","serial_id":988,"title":"HAZARD","category":"Pothole","street":"General Amengual","city":"Estación Central","reporter":null,"coordinates":{"lat":-33.454273,"lon":-70.697531}}
{"_id":"683a33bea283950ac8f56ed4","serial_id":989,"title":"JAM","category":"Standstill Traffic","street":"Av. Padre Alberto Hurtado","city":"Estación Central","reporter":null,"coordinates":{"lat":-33.454293,"lon":-70.69043}}
{"_id":"683a33bea283950ac8f56ed5","serial_id":990,"title":"JAM","category":"Traffic Jam","street":"Coronel Robles","city":"Santiago","reporter":null,"coordinates":{"lat":-33.44162,"lon":-70.691632}}
{"_id":"683a33bea283950ac8f56ed6","serial_id":991,"title":"POLICE","category":"Police","street":"Compañía de Jesús","city":"Santiago","reporter":"world_4mkcbl3y","coordinates":{"lat":-33.44118,"lon":-70.676173}}
{"_id":"683a33bea283950ac8f56ed7","serial_id":992,"title":"JAM","category":"Heavy Traffic","street":"Salida 1a-N > San Pablo / Mapocho","city":null,"reporter":null,"coordinates":{"lat":-33.443399,"lon":-70.691881}}
{"_id":"683a33bea283950ac8f56ed8","serial_id":993,"title":"JAM","category":"Standstill Traffic","street":"Arica","city":"Estación Central","reporter":"sorment","coordinates":{"lat":-33.459001,"lon":-70.684707}}
{"_id":"683a33bea283950ac8f56ed9","serial_id":994,"title":"JAM","category":"Traffic Jam","street":"Av. Víctor Jara","city":"Estación Central","reporter":"world_ozhf2upg","coordinates":{"lat":-33.451158,"lon":-70.68991}}
{"_id":"683a33bea283950ac8f56eda","serial_id":995,"title":"JAM","category":"Heavy Traffic","street":"Autopista Central - Eje Gral. Velásquez","city":null,"reporter":"NubeNinja1","coordinates":{"lat":-33.444102,"lon":-70.692099}}
{"_id":"683a33bea283950ac8f56edb","serial_id":996,"title":"JAM","category":"Traffic Jam","street":"Toro Mazotte","city":"Estación Central","reporter":null,"coordinates":{"lat":-33.453418,"lon":-70.692448}}
{"_id":"683a33bea283950ac8f56edc","serial_id":997,"title":"POLICE","category":"Police","street":"Dolores","city":"Estación Central","reporter":null,"coordinates":{"lat":-33.456839,"lon":-70.682228}}
{"_id":"683a33bea283950ac8f56ef1","serial_id":1018,"title":"JAM","category":"Heavy Traffic","street":"Av. Portales","city":"San Bernardo","reporter":"world_xuwyfqgx","coordinates":{"lat":-33.63033,"lon":-70.704019}}
{"_id":"683a33bea283950ac8f56ef2","serial_id":1019,"title":"JAM","category":"Heavy Traffic","street":"Av. Pdte. Jorge Alessandri Rodríguez","city":"Nos, San Bernardo","reporter":"world_6zk12p4c","coordinates":{"lat":-33.633173,"lon":-70.713425}}
{"_id":"683a33bea283950ac8f56ef3","serial_id":1020,"title":"JAM","category":"Heavy Traffic","street":"Av. Jorge Alessandri Rodríguez","city":"San Bernardo","reporter":"world_6zk12p4c","coordinates":{"lat":-33.633735,"lon":-70.713344}}
{"_id":"683a33bea283950ac8f56ef4","serial_id":1021,"title":"HAZARD","category":"Car Stopped on Shoulder","street":"Av. Pdte. Jorge Alessandri Rodríguez","city":"Nos, San Bernardo","reporter":null,"coordinates":{"lat":-33.629774,"lon":-70.713364}}
{"_id":"683a33bea283950ac8f56ef5","serial_id":1022,"title":"JAM","category":"Standstill Traffic","street":"Camino La Capilla de Nos","city":"San Bernardo","reporter":null,"coordinates":{"lat":-33.638076,"lon":-70.713784}}
{"_id":"683a33bea283950ac8f56f06","serial_id":1043,"title":"JAM","category":"Heavy Traffic","street":"Av. Quilín","city":"Peñalolén","reporter":"world_pfy3qnez","coordinates":{"lat":-33.500168,"lon":-70.551757}}
{"_id":"683a33bea283950ac8f56f07","serial_id":1044,"title":"HAZARD","category":"Pothole","street":"Los Boteros","city":"Peñalolén","reporter":"world_bj9oxfpt","coordinates":{"lat":-33.510115,"lon":-70.570924}}
{"_id":"683a33bea283950ac8f56f08","serial_id":1045,"title":"HAZARD","category":"Car Stopped on Shoulder","street":"Av. Tobalaba","city":"La Florida","reporter":null,"coordinates":{"lat":-33.517184,"lon":-70.558437}}
{"_id":"683a33bea283950ac8f56f09","serial_id":1046,"title":"HAZARD","category":"Pothole","street":"Los Matriceros","city":"Peñalolén","reporter":"world_bj9oxfpt","coordinates":{"lat":-33.509011,"lon":-70.569001}}
{"_id":"683a33bea283950ac8f56f0a","serial_id":1047,"title":"HAZARD","category":"Pothole","street":"Los Cerezos","city":"La Florida","reporter":"world_qeedpwfi","coordinates":{"lat":-33.512641,"lon":-70.576393}}
{"_id":"683a33bea283950ac8f56f0b","serial_id":1048,"title":"HAZARD","category":"Pothole","street":"Los Matriceros","city":"Peñalolén","reporter":"world_bj9oxfpt","coordinates":{"lat":-33.50948,"lon":-70.571429}}
{"_id":"683a33bea283950ac8f56f0c","serial_id":1049,"title":"HAZARD","category":"Pothole","street":"Pasaje 1","city":"Peñalolén","reporter":"world_bj9oxfpt","coordinates":{"lat":-33.50585,"lon":-70.578424}}
{"_id":"683a33bea283950ac8f56f0d","serial_id":1050,"title":"HAZARD","category":"Pothole","street":"Av. Tobalaba","city":"La Florida","reporter":null,"coordinates":{"lat":-33.514784,"lon":-70.559525}}
{"_id":"683a33bea283950ac8f56f0e","serial_id":1051,"title":"HAZARD","category":"Pothole","street":"Peatones 11","city":"Peñalolén","reporter":"world_bj9oxfpt","coordinates":{"lat":-33.503784,"lon":-70.576731}}
{"_id":"683a33bea283950ac8f56f0f","serial_id":1052,"title":"HAZARD","category":"Pothole","street":"Los Soldadores","city":"Peñalolén","reporter":"world_bj9oxfpt","coordinates":{"lat":-33.508338,"lon":-70.572269}}
{"_id":"683a33bea283950ac8f56f10","serial_id":1053,"title":"JAM","category":"Standstill Traffic","street":"Av. Quilín","city":"Peñalolén","reporter":"world_pfy3qnez","coordinates":{"lat":-33.500389,"lon":-70.550188}}
{"_id":"683a33bea283950ac8f56f11","serial_id":1054,"title":"HAZARD","category":"Pothole","street":"Av. Walker Martínez","city":"La Florida","reporter":null,"coordinates":{"lat":-33.522543,"lon":-70.578323}}
{"_id":"683a33bea283950ac8f56f26","serial_id":1075,"title":"CHIT_CHAT","category":"Chit-Chat","street":"El Bosque","city":"Maipú","reporter":"VICTORMANUELCARROZ","coordinates":{"lat":-33.546883,"lon":-70.791059}}
{"_id":"683a33bea283950ac8f56f27","serial_id":1076,"title":"JAM","category":"Heavy Traffic","street":"Ruta 78","city":null,"reporter":null,"coordinates":{"lat":-33.552628,"lon":-70.813501}}
{"_id":"683a33bea283950ac8f56f28","serial_id":1077,"title":"JAM","category":"Heavy Traffic","street":"Ruta 78","city":null,"reporter":null,"coordinates":{"lat":-33.537083,"lon":-70.802166}}
{"_id":"683a33bea283950ac8f56f29","serial_id":1078,"title":"HAZARD","category":"Object on Road","street":"Capellán Florencio Infante","city":"Maipú","reporter":"worldweb_kb54zmgl","coordinates":{"lat":-33.547336,"lon":-70.790129}}
{"_id":"683a33bea283950ac8f56f3d","serial_id":1100,"title":"HAZARD","category":"Road Hazard","street":"Condominio Los Otoñales","city":"Puente Alto","reporter":null,"coordinates":{"lat":-33.602063,"lon":-70.581209}}
{"_id":"683a33bea283950ac8f56f3e","serial_id":1101,"title":"JAM","category":"Heavy Traffic","street":"Independencia","city":"Puente Alto","reporter":null,"coordinates":{"lat":-33.601354,"lon":-70.584575}}
{"_id":"683a33bea283950ac8f56f3f","serial_id":1102,"title":"HAZARD","category":"Pothole","street":"Caletera Acceso Sur","city":"Puente Alto","reporter":"SergioEspinoza1985","coordinates":{"lat":-33.613247,"lon":-70.601848}}
{"_id":"683a33bea283950ac8f56f40","serial_id":1103,"title":"JAM","category":"Standstill Traffic","street":"Av. Domingo Tocornal","city":"Puente Alto","reporter":null,"coordinates":{"lat":-33.606345,"lon":-70.603838}}
{"_id":"683a33bea283950ac8f56f41","serial_id":1104,"title":"JAM","category":"Standstill Traffic","street":"Av. Ernesto Alvear","city":"Puente Alto","reporter":"Colibri_Arcoiris","coordinates":{"lat":-33.613175,"lon":-70.587267}}
{"_id":"683a33bea283950ac8f56f42","serial_id":1105,"title":"JAM","category":"Traffic Jam","street":"Av. Jorge Ross Ossa","city":"Puente Alto","reporter":"El-AnGel-Albo","coordinates":{"lat":-33.596308,"lon":-70.587833}}
{"_id":"683a33bea283950ac8f56f43","serial_id":1106,"title":"JAM","category":"Heavy Traffic","street":"Juan de Dios Malebrán","city":"Puente Alto","reporter":"marioruz2226","coordinates":{"lat":-33.604185,"lon":-70.587703}}
{"_id":"683a33bea283950ac8f56f56","serial_id":1127,"title":"HAZARD","category":"Pothole","street":"Lo Boza","city":"Renca","reporter":"ElChinqui","coordinates":{"lat":-33.392874,"lon":-70.749786}}
{"_id":"683a33bea283950ac8f56f57","serial_id":1128,"title":"ROAD_CLOSED","category":"Road Closed","street":"Vicuña Mackenna","city":"Renca","reporter":"Gasparfox","coordinates":{"lat":-33.405715,"lon":-70.74555}}
{"_id":"683a33bea283950ac8f56f58","serial_id":1129,"title":"ROAD_CLOSED","category":"Road Closed","street":"Olimpo","city":"Renca","reporter":"Gasparfox","coordinates":{"lat":-33.406021,"lon":-70.744097}}
{"_id":"683a33bea283950ac8f56f59","serial_id":1130,"title":"HAZARD","category":"Pothole","street":"Lo Boza","city":"Renca","reporter":"ElChinqui","coordinates":{"lat":-33.396668,"lon":-70.741202}}
{"_id":"683a33bea283950ac8f56f5a","serial_id":1131,"title":"HAZARD","category":"Pothole","street":"Renca","city":"Quilicura","reporter":"ElChinqui","coordinates":{"lat":-33.384642,"lon":-70.749968}}
{"_id":"683a33bea283950ac8f56f5b","serial_id":1132,"title":"HAZARD","category":"Pothole","street":"Av. Colorado","city":"Quilicura","reporter":null,"coordinates":{"lat":-33.382619,"lon":-70.74671}}
{"_id":"683a33bea283950ac8f56f5c","serial_id":1133,"title":"ROAD_CLOSED","category":"Road Closed","street":"Vicuña Mackenna","city":"Renca","reporter":"Gasparfox","coordinates":{"lat":-33.406206,"lon":-70.745639}}
{"_id":"683a33bea283950ac8f56f5d","serial_id":1134,"title":"HAZARD","category":"Pothole","street":"Av. Américo Vespucio","city":"Pudahuel","reporter":null,"coordinates":{"lat":-33.385917,"lon":-70.759871}}
{"_id":"683a33bea283950ac8f56f71","serial_id":1155,"title":"HAZARD","category":"Pothole","street":"Camino Nos a Los Morros","city":"Nos, San Bernardo","reporter":"Proracer_stgo","coordinates":{"lat":-33.639594,"lon":-70.688186}}
{"_id":"683a33bea283950ac8f56f72","serial_id":1156,"title":"JAM","category":"Heavy Traffic","street":"Camino Nos a Los Morros","city":"Nos, San Bernardo","reporter":"tgqf","coordinates":{"lat":-33.640011,"lon":-70.692754}}
{"_id":"683a33bea283950ac8f56f73","serial_id":1157,"title":"JAM","category":"Heavy Traffic","street":"Paso Superior Las Palmas","city":"San Bernardo","reporter":null,"coordinates":{"lat":-33.620022,"lon":-70.69849}}
{"_id":"683a33bea283950ac8f56f74","serial_id":1158,"title":"HAZARD","category":"Car Stopped on Shoulder","street":"Av. Padre Hurtado","city":"San Bernardo","reporter":null,"coordinates":{"lat":-33.640368,"lon":-70.671425}}
{"_id":"683a33bea283950ac8f56f75","serial_id":1159,"title":"JAM","category":"Traffic Jam","street":"Av. Padre Hurtado","city":"San Bernardo","reporter":null,"coordinates":{"lat":-33.622969,"lon":-70.680878}}
{"_id":"683a33bea283950ac8f56f87","serial_id":1181,"title":"JAM","category":"Heavy Traffic","street":"Av. Ferrocarril","city":"Maipú","reporter":null,"coordinates":{"lat":-33.533794,"lon":-70.767599}}
{"_id":"683a33bea283950ac8f56f88","serial_id":1182,"title":"JAM","category":"Standstill Traffic","street":"Av. Ferrocarril","city":"Maipú","reporter":null,"coordinates":{"lat":-33.535172,"lon":-70.769592}}
{"_id":"683a33bea283950ac8f56f89","serial_id":1183,"title":"HAZARD","category":"Pothole","street":"Glorias Navales","city":"Maipú","reporter":null,"coordinates":{"lat":-33.539735,"lon":-70.779037}}
{"_id":"683a33bea283950ac8f56f8a","serial_id":1184,"title":"HAZARD","category":"Pothole","street":"Glorias Navales","city":"Maipú","reporter":null,"coordinates":{"lat":-33.537284,"lon":-70.776187}}
{"_id":"683a33bea283950ac8f56f8b","serial_id":1185,"title":"HAZARD","category":"Pothole","street":"Av. Ferrocarril","city":"Maipú","reporter":null,"coordinates":{"lat":-33.535787,"lon":-70.770488}}
{"_id":"683a33bea283950ac8f56f8d","serial_id":1187,"title":"HAZARD","category":"Pothole","street":"Glorias Navales","city":"Maipú","reporter":null,"coordinates":{"lat":-33.540467,"lon":-70.780079}}
{"_id":"683a33bea283950ac8f56fa0","serial_id":1209,"title":"HAZARD","category":"Car Stopped on Shoulder","street":"Av. Quilín","city":"Peñalolén","reporter":null,"coordinates":{"lat":-33.501086,"lon":-70.539112}}
{"_id":"683a33bea283950ac8f56fa1","serial_id":1210,"title":"JAM","category":"Heavy Traffic","street":"Av. Las Perdices","city":"Peñalolén","reporter":null,"coordinates":{"lat":-33.506292,"lon":-70.543627}}
{"_id":"683a33bea283950ac8f56fa2","serial_id":1211,"title":"HAZARD","category":"Car Stopped on Shoulder","street":"Macul Alto","city":"La Florida","reporter":null,"coordinates":{"lat":-33.513264,"lon":-70.533469}}
{"_id":"683a33bea283950ac8f56fb6","serial_id":1232,"title":"HAZARD","category":"Pothole","street":"Av. Salvador Allende","city":"Renca","reporter":"worldweb_n2i7cpnq","coordinates":{"lat":-33.406633,"lon":-70.707483}}
{"_id":"683a33bea283950ac8f56fb7","serial_id":1233,"title":"HAZARD","category":"Pothole","street":"Av. Salvador Allende","city":"Renca","reporter":"JoseMalebranXDJmpChile","coordinates":{"lat":-33.407317,"lon":-70.712341}}
{"_id":"683a33bea283950ac8f56fb8","serial_id":1234,"title":"JAM","category":"Standstill Traffic","street":"Av. José Miguel Infante","city":"Renca","reporter":null,"coordinates":{"lat":-33.406504,"lon":-70.72727}}
{"_id":"683a33bea283950ac8f56fb9","serial_id":1235,"title":"JAM","category":"Heavy Traffic","street":"Av. Condell","city":"Renca","reporter":"LambOfGod2010","coordinates":{"lat":-33.406999,"lon":-70.727065}}
{"_id":"683a33bea283950ac8f56fba","serial_id":1236,"title":"JAM","category":"Heavy Traffic","street":"Av. Salvador Allende","city":"Renca","reporter":"Gonzacon","coordinates":{"lat":-33.409219,"lon":-70.700474}}
{"_id":"683a33bea283950ac8f56fbb","serial_id":1237,"title":"JAM","category":"Standstill Traffic","street":"Av. José Miguel Infante","city":"Renca","reporter":null,"coordinates":{"lat":-33.406526,"lon":-70.725949}}
{"_id":"683a33bea283950ac8f56fd0","serial_id":1258,"title":"JAM","category":"Standstill Traffic","street":"Av. Eyzaguirre","city":"Puente Alto","reporter":"Colibri_Arcoiris","coordinates":{"lat":-33.612438,"lon":-70.571957}}
{"_id":"683a33bea283950ac8f56fd1","serial_id":1259,"title":"POLICE","category":"Police","street":"Av. México","city":"Puente Alto","reporter":null,"coordinates":{"lat":-33.592157,"lon":-70.560592}}
{"_id":"683a33bea283950ac8f56fd2","serial_id":1260,"title":"JAM","category":"Heavy Traffic","street":"Av. San Carlos","city":"Puente Alto","reporter":"OrlandoAguirre2021","coordinates":{"lat":-33.597404,"lon":-70.569769}}
{"_id":"683a33bea283950ac8f56fd3","serial_id":1261,"title":"JAM","category":"Standstill Traffic","street":"Av. Domingo Tocornal","city":"Puente Alto","reporter":null,"coordinates":{"lat":-33.602615,"lon":-70.575143}}
{"_id":"683a33bea283950ac8f56fd4","serial_id":1262,"title":"JAM","category":"Heavy Traffic","street":"Av. San Carlos","city":"Puente Alto","reporter":null,"coordinates":{"lat":-33.598445,"lon":-70.579729}}
{"_id":"683a33bea283950ac8f56fd5","serial_id":1263,"title":"HAZARD","category":"Pothole","street":"Calle Abogado","city":"Puente Alto","reporter":null,"coordinates":{"lat":-33.595368,"lon":-70.569302}}
{"_id":"683a33bea283950ac8f56fe8","serial_id":1284,"title":"HAZARD","category":"Car Stopped on Shoulder","street":"Ruta G-30 / Camino a Lonquén","city":null,"reporter":"world_6qj74uy7","coordinates":{"lat":-33.547047,"lon":-70.746116}}
{"_id":"683a33bea283950ac8f56fe9","serial_id":1285,"title":"HAZARD","category":"Pothole","street":"Pérez Ossa","city":"San Bernardo","reporter":"avaras-1970","coordinates":{"lat":-33.55153,"lon":-70.73032}}
{"_id":"683a33bea283950ac8f56fea","serial_id":1286,"title":"JAM","category":"Standstill Traffic","street":"Ruta G-30 / Camino a Lonquén","city":null,"reporter":null,"coordinates":{"lat":-33.535212,"lon":-70.735697}}
{"_id":"683a33bea283950ac8f56feb","serial_id":1287,"title":"HAZARD","category":"Traffic Light Fault","street":"Ruta G-30 / Camino a Lonquén","city":null,"reporter":"world_6qj74uy7","coordinates":{"lat":-33.546048,"lon":-70.745229}}
{"_id":"683a33bea283950ac8f56fec","serial_id":1288,"title":"JAM","category":"Standstill Traffic","street":"Rinconada de Chena","city":"San Bernardo","reporter":"MauroBoccardo90","coordinates":{"lat":-33.557685,"lon":-70.751397}}
{"_id":"683a33bea283950ac8f56fed","serial_id":1289,"title":"HAZARD","category":"Pothole","street":"Rinconada de Chena","city":"San Bernardo","reporter":"MoiDuart","coordinates":{"lat":-33.559704,"lon":-70.748776}}
{"_id":"683a33bea283950ac8f56fee","serial_id":1290,"title":"JAM","category":"Standstill Traffic","street":"Ruta G-30 / Camino a Lonquén","city":null,"reporter":"world_6qj74uy7","coordinates":{"lat":-33.550168,"lon":-70.748887}}
{"_id":"683a33bea283950ac8f56fef","serial_id":1291,"title":"JAM","category":"Heavy Traffic","street":"Rinconada de Chena","city":"San Bernardo","reporter":"panchoextrimspeed","coordinates":{"lat":-33.557427,"lon":-70.751731}}
{"_id":"683a33bea283950ac8f56ff0","serial_id":1292,"title":"HAZARD","category":"Pothole","street":"Ruta G-30 / Camino a Lonquén","city":null,"reporter":"world_6qj74uy7","coordinates":{"lat":-33.545256,"lon":-70.744528}}
{"_id":"683a33bea283950ac8f56ff1","serial_id":1293,"title":"JAM","category":"Heavy Traffic","street":"Ruta G-30 / Camino a Lonquén","city":null,"reporter":null,"coordinates":{"lat":-33.530759,"lon":-70.732043}}
{"_id":"683a33bea283950ac8f56ff2","serial_id":1294,"title":"JAM","category":"Standstill Traffic","street":"Ruta G-30 / Camino a Lonquén","city":null,"reporter":"world_6qj74uy7","coordinates":{"lat":-33.547306,"lon":-70.746345}}
{"_id":"683a33bea283950ac8f57016","serial_id":1335,"title":"HAZARD","category":"Road Hazard","street":"Av. Padre Hurtado","city":"San Bernardo","reporter":null,"coordinates":{"lat":-33.644604,"lon":-70.667345}}
{"_id":"683a33bea283950ac8f57017","serial_id":1336,"title":"HAZARD","category":"Pothole","street":"Av. Padre Hurtado","city":"San Bernardo","reporter":null,"coordinates":{"lat":-33.646021,"lon":-70.665951}}
{"_id":"683a33bea283950ac8f57029","serial_id":1357,"title":"JAM","category":"Standstill Traffic","street":"Av. Eyzaguirre","city":"Puente Alto","reporter":null,"coordinates":{"lat":-33.610855,"lon":-70.546603}}
{"_id":"683a33bea283950ac8f5702a","serial_id":1358,"title":"JAM","category":"Traffic Jam","street":"Av. San Carlos","city":"Puente Alto","reporter":"world_e888oq1q","coordinates":{"lat":-33.593663,"lon":-70.544675}}
{"_id":"683a33bea283950ac8f5702b","serial_id":1359,"title":"JAM","category":"Heavy Traffic","street":"Av. Eyzaguirre","city":"Puente Alto","reporter":null,"coordinates":{"lat":-33.611148,"lon":-70.545153}}
{"_id":"683a33bea283950ac8f5702c","serial_id":1360,"title":"JAM","category":"Heavy Traffic","street":"Av. Eyzaguirre","city":"Puente Alto","reporter":null,"coordinates":{"lat":-33.61106,"lon":-70.545598}}
{"_id":"683a33bea283950ac8f5703d","serial_id":1382,"title":"JAM","category":"Standstill Traffic","street":"Av. Lo Espejo","city":"Lo Espejo","reporter":"CarolinaMezaZ","coordinates":{"lat":-33.532155,"lon":-70.704691}}
{"_id":"683a33bea283950ac8f5703e","serial_id":1383,"title":"JAM","category":"Heavy Traffic","street":"Autopista Central - Eje Gral. Velásquez","city":null,"reporter":null,"coordinates":{"lat":-33.556335,"lon":-70.710406}}
{"_id":"683a33bea283950ac8f5703f","serial_id":1384,"title":"HAZARD","category":"Car Stopped on Shoulder","street":"Salida 10b-S > Santa Margarita / Puerta Sur","city":null,"reporter":"panchocp","coordinates":{"lat":-33.540798,"lon":-70.708421}}
{"_id":"683a33bea283950ac8f57040","serial_id":1385,"title":"JAM","category":"Heavy Traffic","street":"Av. Lo Espejo","city":"Cerrillos","reporter":"Bricas2","coordinates":{"lat":-33.530133,"lon":-70.709785}}
{"_id":"683a33bea283950ac8f57041","serial_id":1386,"title":"HAZARD","category":"Road Hazard","street":"Av. Las Acacias > Norte","city":"San Bernardo","reporter":null,"coordinates":{"lat":-33.558989,"lon":-70.709955}}
{"_id":"683a33bea283950ac8f57042","serial_id":1387,"title":"JAM","category":"Standstill Traffic","street":"Autopista Central / Eje Norte-Sur","city":null,"reporter":"JV1306","coordinates":{"lat":-33.554811,"lon":-70.709013}}
{"_id":"683a33bea283950ac8f57043","serial_id":1388,"title":"JAM","category":"Traffic Jam","street":"Pablo Neruda","city":"Lo Espejo","reporter":"world_hd3mp6ch","coordinates":{"lat":-33.533299,"lon":-70.701017}}
{"_id":"683a33bea283950ac8f57044","serial_id":1389,"title":"HAZARD","category":"Pothole","street":"San Martín de Porres","city":"San Bernardo","reporter":"Icarus_Franz","coordinates":{"lat":-33.550212,"lon":-70.717821}}
{"_id":"683a33bea283950ac8f57045","serial_id":1390,"title":"JAM","category":"Standstill Traffic","street":"Autopista Central - Eje Gral. Velásquez","city":null,"reporter":"lavalezg","coordinates":{"lat":-33.547393,"lon":-70.708606}}
{"_id":"683a33bea283950ac8f57046","serial_id":1391,"title":"HAZARD","category":"Pothole","street":"Av. Lo Espejo","city":"Lo Espejo","reporter":null,"coordinates":{"lat":-33.53193,"lon":-70.705293}}
{"_id":"683a33bea283950ac8f57047","serial_id":1392,"title":"JAM","category":"Heavy Traffic","street":"Autopista Central","city":null,"reporter":"lavalezg","coordinates":{"lat":-33.557467,"lon":-70.710609}}
{"_id":"683a33bea283950ac8f57048","serial_id":1393,"title":"JAM","category":"Heavy Traffic","street":"Autopista Central / Eje Norte-Sur","city":null,"reporter":null,"coordinates":{"lat":-33.553655,"lon":-70.706779}}
{"_id":"683a33bea283950ac8f57049","serial_id":1394,"title":"JAM","category":"Traffic Jam","street":"Autopista Central - Eje Gral. Velásquez","city":null,"reporter":null,"coordinates":{"lat":-33.530499,"lon":-70.706175}}
{"_id":"683a33bea283950ac8f5704a","serial_id":1395,"title":"HAZARD","category":"Pothole","street":"Av. Lo Espejo","city":"Lo Espejo","reporter":null,"coordinates":{"lat":-33.532206,"lon":-70.704557}}
{"_id":"683a33bea283950ac8f5704b","serial_id":1396,"title":"JAM","category":"Standstill Traffic","street":"Santa Margarita","city":"San Bernardo","reporter":"worldweb_kg0255wd","coordinates":{"lat":-33.537149,"lon":-70.701574}}
{"_id":"683a33bea283950ac8f57060","serial_id":1417,"title":"POLICE","category":"Police","street":"Av. Juanita","city":"Puente Alto","reporter":null,"coordinates":{"lat":-33.620949,"lon":-70.612818}}
{"_id":"683a33bea283950ac8f57061","serial_id":1418,"title":"CHIT_CHAT","category":"Chit-Chat","street":"Av. Sargento Menadier","city":"Puente Alto","reporter":"kaleSunny7","coordinates":{"lat":-33.62113,"lon":-70.612432}}
{"_id":"683a33bea283950ac8f57062","serial_id":1419,"title":"POLICE","category":"Police","street":"Av. Sargento Menadier","city":"Puente Alto","reporter":null,"coordinates":{"lat":-33.621005,"lon":-70.611622}}
{"_id":"683a33bea283950ac8f57076","serial_id":1440,"title":"JAM","category":"Heavy Traffic","street":"Av. Libertador Bernardo O'Higgins","city":"Santiago","reporter":"hjif","coordinates":{"lat":-33.446804,"lon":-70.661988}}
{"_id":"683a33bea283950ac8f57077","serial_id":1441,"title":"JAM","category":"Heavy Traffic","street":"Av. Manuel Antonio Matta","city":"Santiago","reporter":null,"coordinates":{"lat":-33.459015,"lon":-70.64705}}
{"_id":"683a33bea283950ac8f57078","serial_id":1442,"title":"HAZARD","category":"Lane Closed","street":"Av. Libertador Bernardo O'Higgins","city":"Santiago","reporter":"Pista izquierda, obras ciclovía","coordinates":{"lat":-33.44668,"lon":-70.661444}}
{"_id":"683a33bea283950ac8f57079","serial_id":1443,"title":"JAM","category":"Traffic Jam","street":"Autopista Central","city":null,"reporter":"glenrgl","coordinates":{"lat":-33.469662,"lon":-70.656519}}
{"_id":"683a33bea283950ac8f5707a","serial_id":1444,"title":"JAM","category":"Standstill Traffic","street":"Autopista Central","city":null,"reporter":"ClaudioCarrilloMora","coordinates":{"lat":-33.46817,"lon":-70.656605}}
{"_id":"683a33bea283950ac8f5707b","serial_id":1445,"title":"HAZARD","category":"Lane Closed","street":"Av. Libertador Bernardo O'Higgins","city":"Santiago","reporter":"Pista izquierda, obras ciclovía","coordinates":{"lat":-33.445298,"lon":-70.658021}}
{"_id":"683a33bea283950ac8f5707c","serial_id":1446,"title":"JAM","category":"Heavy Traffic","street":"Acceso a Autopista Central","city":null,"reporter":null,"coordinates":{"lat":-33.443707,"lon":-70.660811}}
{"_id":"683a33bea283950ac8f5707d","serial_id":1447,"title":"ACCIDENT","category":"Accident","street":"Av. Libertador Bernardo O'Higgins","city":"Santiago","reporter":"Snakeheather","coordinates":{"lat":-33.446773,"lon":-70.661852}}
{"_id":"683a33bea283950ac8f5707e","serial_id":1448,"title":"HAZARD","category":"Lane Closed","street":"Av. Libertador Bernardo O'Higgins","city":"Santiago","reporter":"Subsecretaria de Transportes","coordinates":{"lat":-33.445313,"lon":-70.655606}}
{"_id":"683a33bea283950ac8f5707f","serial_id":1449,"title":"JAM","category":"Heavy Traffic","street":"Av. Libertador Bernardo O'Higgins","city":"Santiago","reporter":null,"coordinates":{"lat":-33.447592,"lon":-70.665636}}
{"_id":"683a33bea283950ac8f57080","serial_id":1450,"title":"HAZARD","category":"Lane Closed","street":"Av. Libertador Bernardo O'Higgins","city":"Santiago","reporter":"Pista izquierda, obras ciclovía","coordinates":{"lat":-33.447197,"lon":-70.663675}}
{"_id":"683a33bea283950ac8f57081","serial_id":1451,"title":"HAZARD","category":"Lane Closed","street":"Av. Libertador Bernardo O'Higgins","city":"Santiago","reporter":"Pista izquierda, obras ciclovía","coordinates":{"lat":-33.44766,"lon":-70.667388}}
{"_id":"683a33bea283950ac8f57082","serial_id":1452,"title":"HAZARD","category":"Lane Closed","street":"Av. Libertador Bernardo O'Higgins","city":"Santiago","reporter":"Pista izquierda, obras ciclovía","coordinates":{"lat":-33.444874,"lon":-70.653949}}
{"_id":"683a33bea283950ac8f57083","serial_id":1453,"title":"HAZARD","category":"Lane Closed","street":"Av. Libertador Bernardo O'Higgins","city":"Santiago","reporter":"Pista izquierda, obras ciclovía","coordinates":{"lat":-33.44628,"lon":-70.662109}}
{"_id":"683a33bea283950ac8f57084","serial_id":1454,"title":"JAM","category":"Standstill Traffic","street":"Curicó","city":"Santiago","reporter":null,"coordinates":{"lat":-33.446177,"lon":-70.644604}}
{"_id":"683a33bea283950ac8f57085","serial_id":1455,"title":"JAM","category":"Standstill Traffic","street":"Av. Manuel Rodríguez","city":"Santiago","reporter":null,"coordinates":{"lat":-33.455008,"lon":-70.657361}}
